[
  {
    "altitude": "98",
    "name": "馬祖",
    "latitude": "26.1694",
    "longitude": "119.9232",
    "county": "連江縣",
    "id": "46799",
    "district": "南竿鄉"
  },
  {
    "altitude": "102",
    "name": "彭佳嶼",
    "latitude": "25.6294",
    "longitude": "122.0713",
    "county": "基隆市",
    "id": "46695",
    "district": "中正區"
  },
  {
    "altitude": "0",
    "name": "富貴角",
    "latitude": "25.2900",
    "longitude": "121.5364",
    "county": "新北市",
    "id": "01A35",
    "district": "石門區"
  },
  {
    "altitude": "196",
    "name": "富貴角",
    "latitude": "25.2656",
    "longitude": "121.5573",
    "county": "新北市",
    "id": "C0A92",
    "district": "石門區"
  },
  {
    "altitude": "86",
    "name": "三芝",
    "latitude": "25.2596",
    "longitude": "121.4934",
    "county": "新北市",
    "id": "C0AD0",
    "district": "三芝區"
  },
  {
    "altitude": "200",
    "name": "三和",
    "latitude": "25.2367",
    "longitude": "121.5858",
    "county": "新北市",
    "id": "C0A93",
    "district": "金山區"
  },
  {
    "altitude": "49",
    "name": "金山",
    "latitude": "25.2253",
    "longitude": "121.6356",
    "county": "新北市",
    "id": "C0A94",
    "district": "金山區"
  },
  {
    "altitude": "826",
    "name": "鞍部",
    "latitude": "25.1865",
    "longitude": "121.5202",
    "county": "台北市",
    "id": "46691",
    "district": "北投區"
  },
  {
    "altitude": "814",
    "name": "油坑",
    "latitude": "25.1821",
    "longitude": "121.5406",
    "county": "台北市",
    "id": "A1AD4",
    "district": "北投區"
  },
  {
    "altitude": "1086",
    "name": "大屯山",
    "latitude": "25.1773",
    "longitude": "121.5142",
    "county": "新北市",
    "id": "C0AC4",
    "district": "淡水區"
  },
  {
    "altitude": "699",
    "name": "湖田國小",
    "latitude": "25.1704",
    "longitude": "121.5307",
    "county": "台北市",
    "id": "A1A9S",
    "district": "北投區"
  },
  {
    "altitude": "662",
    "name": "竹湖",
    "latitude": "25.1701",
    "longitude": "121.5201",
    "county": "台北市",
    "id": "A1AD2",
    "district": "北投區"
  },
  {
    "altitude": "362",
    "name": "大坪",
    "latitude": "25.1677",
    "longitude": "121.6247",
    "county": "新北市",
    "id": "C0A86",
    "district": "萬里區"
  },
  {
    "altitude": "19",
    "name": "淡水",
    "latitude": "25.1656",
    "longitude": "121.4400",
    "county": "新北市",
    "id": "46690",
    "district": "淡水區"
  },
  {
    "altitude": "769",
    "name": "擎天",
    "latitude": "25.1651",
    "longitude": "121.5598",
    "county": "台北市",
    "id": "A1AD1",
    "district": "士林區"
  },
  {
    "altitude": "607",
    "name": "竹子湖",
    "latitude": "25.1650",
    "longitude": "121.5363",
    "county": "台北市",
    "id": "46693",
    "district": "北投區"
  },
  {
    "altitude": "600",
    "name": "竹子湖",
    "latitude": "25.1639",
    "longitude": "121.5336",
    "county": "台北市",
    "id": "01A42",
    "district": "士林區"
  },
  {
    "altitude": "278",
    "name": "貴子",
    "latitude": "25.1577",
    "longitude": "121.4816",
    "county": "台北市",
    "id": "A1AD8",
    "district": "北投區"
  },
  {
    "altitude": "318",
    "name": "大屯國小",
    "latitude": "25.1568",
    "longitude": "121.4957",
    "county": "台北市",
    "id": "A1A9T",
    "district": "北投區"
  },
  {
    "altitude": "27",
    "name": "八里",
    "latitude": "25.1523",
    "longitude": "121.3953",
    "county": "新北市",
    "id": "C0AD1",
    "district": "八里區"
  },
  {
    "altitude": "180",
    "name": "稻香",
    "latitude": "25.1498",
    "longitude": "121.4757",
    "county": "台北市",
    "id": "A1AG3",
    "district": "北投區"
  },
  {
    "altitude": "485",
    "name": "菁山",
    "latitude": "25.1458",
    "longitude": "121.5578",
    "county": "台北市",
    "id": "A1AD0",
    "district": "士林區"
  },
  {
    "altitude": "453",
    "name": "溪山",
    "latitude": "25.1387",
    "longitude": "121.5807",
    "county": "台北市",
    "id": "A1AC9",
    "district": "士林區"
  },
  {
    "altitude": "28",
    "name": "桃源國中",
    "latitude": "25.1362",
    "longitude": "121.4687",
    "county": "台北市",
    "id": "A1A9U",
    "district": "北投區"
  },
  {
    "altitude": "37",
    "name": "北投國小",
    "latitude": "25.1357",
    "longitude": "121.4907",
    "county": "台北市",
    "id": "A1A9V",
    "district": "北投區"
  },
  {
    "altitude": "111",
    "name": "關渡",
    "latitude": "25.1353",
    "longitude": "121.4612",
    "county": "台北市",
    "id": "C1AC5",
    "district": "北投區"
  },
  {
    "altitude": "27",
    "name": "基隆",
    "latitude": "25.1348",
    "longitude": "121.7321",
    "county": "基隆市",
    "id": "46694",
    "district": "中山區"
  },
  {
    "altitude": "685",
    "name": "五指山",
    "latitude": "25.1339",
    "longitude": "121.6003",
    "county": "新北市",
    "id": "C0A87",
    "district": "汐止區"
  },
  {
    "altitude": "394",
    "name": "格致國中",
    "latitude": "25.1332",
    "longitude": "121.5374",
    "county": "台北市",
    "id": "A1AA1",
    "district": "士林區"
  },
  {
    "altitude": "427",
    "name": "平等國小",
    "latitude": "25.1310",
    "longitude": "121.5682",
    "county": "台北市",
    "id": "A1AA2",
    "district": "士林區"
  },
  {
    "altitude": "118",
    "name": "鼻頭角",
    "latitude": "25.1308",
    "longitude": "121.9153",
    "county": "新北市",
    "id": "C0A95",
    "district": "瑞芳區"
  },
  {
    "altitude": "28",
    "name": "奇岩",
    "latitude": "25.1257",
    "longitude": "121.4949",
    "county": "台北市",
    "id": "A1AB7",
    "district": "北投區"
  },
  {
    "altitude": "63",
    "name": "天母",
    "latitude": "25.1194",
    "longitude": "121.5289",
    "county": "台北市",
    "id": "C0A9C",
    "district": "士林區"
  },
  {
    "altitude": "7",
    "name": "石牌",
    "latitude": "25.1176",
    "longitude": "121.5059",
    "county": "台北市",
    "id": "C0A9B",
    "district": "北投區"
  },
  {
    "altitude": "111",
    "name": "明德",
    "latitude": "25.1155",
    "longitude": "121.5575",
    "county": "台北市",
    "id": "A1AC8",
    "district": "士林區"
  },
  {
    "altitude": "127",
    "name": "雙溪",
    "latitude": "25.1154",
    "longitude": "121.5612",
    "county": "台北市",
    "id": "A1AB8",
    "district": "士林區"
  },
  {
    "altitude": "97",
    "name": "瑞芳",
    "latitude": "25.1149",
    "longitude": "121.7926",
    "county": "新北市",
    "id": "C0A66",
    "district": "瑞芳區"
  },
  {
    "altitude": "101",
    "name": "瑞芳",
    "latitude": "25.1128",
    "longitude": "121.7956",
    "county": "新北市",
    "id": "01A38",
    "district": "瑞芳區"
  },
  {
    "altitude": "54",
    "name": "社子",
    "latitude": "25.1114",
    "longitude": "121.4614",
    "county": "台北市",
    "id": "C0A98",
    "district": "士林區"
  },
  {
    "altitude": "463",
    "name": "大崙尾山",
    "latitude": "25.1084",
    "longitude": "121.5656",
    "county": "台北市",
    "id": "C0A99",
    "district": "內湖區"
  },
  {
    "altitude": "8",
    "name": "中洲",
    "latitude": "25.1071",
    "longitude": "121.4665",
    "county": "台北市",
    "id": "A1AB3",
    "district": "士林區"
  },
  {
    "altitude": "53",
    "name": "至善國中",
    "latitude": "25.1051",
    "longitude": "121.5474",
    "county": "台北市",
    "id": "A1AA3",
    "district": "士林區"
  },
  {
    "altitude": "14",
    "name": "福德",
    "latitude": "25.1012",
    "longitude": "121.5207",
    "county": "台北市",
    "id": "A1AB6",
    "district": "士林區"
  },
  {
    "altitude": "187",
    "name": "大湖",
    "latitude": "25.0982",
    "longitude": "121.5959",
    "county": "台北市",
    "id": "A1AG2",
    "district": "內湖區"
  },
  {
    "altitude": "240",
    "name": "金面",
    "latitude": "25.0967",
    "longitude": "121.5617",
    "county": "台北市",
    "id": "A1AG8",
    "district": "內湖區"
  },
  {
    "altitude": "18",
    "name": "陽明高中",
    "latitude": "25.0943",
    "longitude": "121.5085",
    "county": "台北市",
    "id": "A1A9W",
    "district": "士林區"
  },
  {
    "altitude": "84",
    "name": "大粗坑",
    "latitude": "25.0931",
    "longitude": "121.8307",
    "county": "新北市",
    "id": "swc07",
    "district": "瑞芳區"
  },
  {
    "altitude": "26",
    "name": "士林",
    "latitude": "25.0922",
    "longitude": "121.4950",
    "county": "台北市",
    "id": "C0A9E",
    "district": "士林區"
  },
  {
    "altitude": "264",
    "name": "劍南",
    "latitude": "25.0917",
    "longitude": "121.5431",
    "county": "台北市",
    "id": "A1AD5",
    "district": "中山區"
  },
  {
    "altitude": "63",
    "name": "安泰",
    "latitude": "25.0894",
    "longitude": "121.6049",
    "county": "台北市",
    "id": "A1AD3",
    "district": "內湖區"
  },
  {
    "altitude": "20",
    "name": "蘆洲",
    "latitude": "25.0885",
    "longitude": "121.4641",
    "county": "新北市",
    "id": "C0AD3",
    "district": "蘆洲區"
  },
  {
    "altitude": "29",
    "name": "蘆竹",
    "latitude": "25.0878",
    "longitude": "121.2625",
    "county": "桃園縣",
    "id": "C1C62",
    "district": "蘆竹鄉"
  },
  {
    "altitude": "33",
    "name": "碧湖國小",
    "latitude": "25.0865",
    "longitude": "121.5835",
    "county": "台北市",
    "id": "A1AA4",
    "district": "內湖區"
  },
  {
    "altitude": "19",
    "name": "蘆竹",
    "latitude": "25.0861",
    "longitude": "121.2575",
    "county": "桃園縣",
    "id": "C0C62",
    "district": "蘆竹鄉"
  },
  {
    "altitude": "95",
    "name": "五股",
    "latitude": "25.0853",
    "longitude": "121.4272",
    "county": "新北市",
    "id": "C0A68",
    "district": "五股區"
  },
  {
    "altitude": "120",
    "name": "劍潭",
    "latitude": "25.0849",
    "longitude": "121.5202",
    "county": "台北市",
    "id": "A1AG5",
    "district": "中山區"
  },
  {
    "altitude": "20",
    "name": "內湖",
    "latitude": "25.0811",
    "longitude": "121.5656",
    "county": "台北市",
    "id": "C0A9F",
    "district": "內湖區"
  },
  {
    "altitude": "16",
    "name": "五堵",
    "latitude": "25.0808",
    "longitude": "121.6867",
    "county": "基隆市",
    "id": "01B03",
    "district": "七堵區"
  },
  {
    "altitude": "49",
    "name": "大直",
    "latitude": "25.0797",
    "longitude": "121.5347",
    "county": "台北市",
    "id": "C0A9A",
    "district": "中山區"
  },
  {
    "altitude": "238",
    "name": "林口",
    "latitude": "25.0781",
    "longitude": "121.3700",
    "county": "新北市",
    "id": "C0A71",
    "district": "林口區"
  },
  {
    "altitude": "25",
    "name": "建國",
    "latitude": "25.0740",
    "longitude": "121.5207",
    "county": "台北市",
    "id": "A1AB5",
    "district": "中山區"
  },
  {
    "altitude": "757",
    "name": "五分山站",
    "latitude": "25.0728",
    "longitude": "121.7725",
    "county": "新北市",
    "id": "46685",
    "district": "瑞芳區"
  },
  {
    "altitude": "34",
    "name": "東湖國小",
    "latitude": "25.0710",
    "longitude": "121.6068",
    "county": "台北市",
    "id": "A1AA5",
    "district": "內湖區"
  },
  {
    "altitude": "38",
    "name": "汐止",
    "latitude": "25.0687",
    "longitude": "121.6506",
    "county": "新北市",
    "id": "C0AH0",
    "district": "汐止區"
  },
  {
    "altitude": "20",
    "name": "太平國小",
    "latitude": "25.0635",
    "longitude": "121.5035",
    "county": "台北市",
    "id": "A1A9X",
    "district": "大同區"
  },
  {
    "altitude": "13",
    "name": "社后橋",
    "latitude": "25.0630",
    "longitude": "121.6336",
    "county": "新北市",
    "id": "01AG0",
    "district": "汐止區"
  },
  {
    "altitude": "28",
    "name": "民生國中",
    "latitude": "25.0615",
    "longitude": "121.5585",
    "county": "台北市",
    "id": "A1A9Y",
    "district": "松山區"
  },
  {
    "altitude": "118",
    "name": "三貂嶺",
    "latitude": "25.0592",
    "longitude": "121.8206",
    "county": "新北市",
    "id": "01AF9",
    "district": "瑞芳區"
  },
  {
    "altitude": "18",
    "name": "三重",
    "latitude": "25.0585",
    "longitude": "121.4813",
    "county": "新北市",
    "id": "C0A9I",
    "district": "三重區"
  },
  {
    "altitude": "42",
    "name": "南港",
    "latitude": "25.0575",
    "longitude": "121.5947",
    "county": "台北市",
    "id": "C0A9G",
    "district": "南港區"
  },
  {
    "altitude": "27",
    "name": "玉成",
    "latitude": "25.0540",
    "longitude": "121.5743",
    "county": "台北市",
    "id": "A1AB4",
    "district": "南港區"
  },
  {
    "altitude": "326",
    "name": "大尖山",
    "latitude": "25.0533",
    "longitude": "121.6578",
    "county": "新北市",
    "id": "C0A59",
    "district": "汐止區"
  },
  {
    "altitude": "25",
    "name": "新莊",
    "latitude": "25.0532",
    "longitude": "121.4385",
    "county": "新北市",
    "id": "C0ACA",
    "district": "新莊區"
  },
  {
    "altitude": "70",
    "name": "埔心",
    "latitude": "25.0494",
    "longitude": "121.2178",
    "county": "桃園縣",
    "id": "C0C54",
    "district": "大園鄉"
  },
  {
    "altitude": "38",
    "name": "舊莊國小",
    "latitude": "25.0418",
    "longitude": "121.6112",
    "county": "台北市",
    "id": "A1AA7",
    "district": "南港區"
  },
  {
    "altitude": "83",
    "name": "市政中心",
    "latitude": "25.0407",
    "longitude": "121.5482",
    "county": "台北市",
    "id": "A1AA8",
    "district": "信義區"
  },
  {
    "altitude": "5",
    "name": "臺北",
    "latitude": "25.0396",
    "longitude": "121.5067",
    "county": "台北市",
    "id": "46692",
    "district": "中正區"
  },
  {
    "altitude": "71",
    "name": "信義",
    "latitude": "25.0394",
    "longitude": "121.5561",
    "county": "台北市",
    "id": "C0AC7",
    "district": "信義區"
  },
  {
    "altitude": "32",
    "name": "留公國中",
    "latitude": "25.0390",
    "longitude": "121.5774",
    "county": "台北市",
    "id": "A1AA6",
    "district": "信義區"
  },
  {
    "altitude": "40",
    "name": "雙溪",
    "latitude": "25.0379",
    "longitude": "121.8561",
    "county": "新北市",
    "id": "C0A89",
    "district": "雙溪區"
  },
  {
    "altitude": "47",
    "name": "舊莊",
    "latitude": "25.0358",
    "longitude": "121.6165",
    "county": "台北市",
    "id": "A1AC5",
    "district": "南港區"
  },
  {
    "altitude": "44",
    "name": "九如",
    "latitude": "25.0343",
    "longitude": "121.6034",
    "county": "台北市",
    "id": "A1AC6",
    "district": "南港區"
  },
  {
    "altitude": "31",
    "name": "中正國中",
    "latitude": "25.0335",
    "longitude": "121.5137",
    "county": "台北市",
    "id": "A1A9Z",
    "district": "中正區"
  },
  {
    "altitude": "177",
    "name": "龜山",
    "latitude": "25.0331",
    "longitude": "121.3664",
    "county": "桃園縣",
    "id": "C0C64",
    "district": "龜山鄉"
  },
  {
    "altitude": "31",
    "name": "雙園",
    "latitude": "25.0321",
    "longitude": "121.4821",
    "county": "台北市",
    "id": "A1AB2",
    "district": "萬華區"
  },
  {
    "altitude": "144",
    "name": "四獸",
    "latitude": "25.0311",
    "longitude": "121.5747",
    "county": "台北市",
    "id": "A1AG4",
    "district": "信義區"
  },
  {
    "altitude": "28",
    "name": "三興國小",
    "latitude": "25.0310",
    "longitude": "121.5499",
    "county": "台北市",
    "id": "A1AA0",
    "district": "信義區"
  },
  {
    "altitude": "375",
    "name": "茶場",
    "latitude": "25.0302",
    "longitude": "121.6551",
    "county": "台北市",
    "id": "A1AD7",
    "district": "南港區"
  },
  {
    "altitude": "29",
    "name": "觀音",
    "latitude": "25.0289",
    "longitude": "121.1451",
    "county": "桃園縣",
    "id": "C0C59",
    "district": "觀音鄉"
  },
  {
    "altitude": "15",
    "name": "中正橋",
    "latitude": "25.0214",
    "longitude": "121.5097",
    "county": "台北市",
    "id": "01A41",
    "district": "中正區"
  },
  {
    "altitude": "6",
    "name": "福隆",
    "latitude": "25.0192",
    "longitude": "121.9342",
    "county": "新北市",
    "id": "C0A88",
    "district": "貢寮區"
  },
  {
    "altitude": "118",
    "name": "挹翠",
    "latitude": "25.0189",
    "longitude": "121.5662",
    "county": "台北市",
    "id": "A1AC7",
    "district": "信義區"
  },
  {
    "altitude": "120",
    "name": "福州",
    "latitude": "25.0187",
    "longitude": "121.5461",
    "county": "台北市",
    "id": "A1AG6",
    "district": "大安區"
  },
  {
    "altitude": "22",
    "name": "公館",
    "latitude": "25.0162",
    "longitude": "121.5313",
    "county": "台北市",
    "id": "C1A73",
    "district": "大安區"
  },
  {
    "altitude": "5",
    "name": "新屋",
    "latitude": "25.0158",
    "longitude": "121.0433",
    "county": "桃園縣",
    "id": "46705",
    "district": "新屋鄉"
  },
  {
    "altitude": "5",
    "name": "新屋",
    "latitude": "25.0158",
    "longitude": "121.0433",
    "county": "桃園縣",
    "id": "C0C57",
    "district": "新屋鄉"
  },
  {
    "altitude": "77",
    "name": "永和",
    "latitude": "25.0106",
    "longitude": "121.4967",
    "county": "新北市",
    "id": "C0A9D",
    "district": "永和區"
  },
  {
    "altitude": "116",
    "name": "三貂角",
    "latitude": "25.0094",
    "longitude": "121.9939",
    "county": "新北市",
    "id": "C0A97",
    "district": "貢寮區"
  },
  {
    "altitude": "287",
    "name": "火燒寮",
    "latitude": "25.0044",
    "longitude": "121.7346",
    "county": "新北市",
    "id": "C0A65",
    "district": "平溪區"
  },
  {
    "altitude": "40",
    "name": "文山",
    "latitude": "25.0041",
    "longitude": "121.5675",
    "county": "台北市",
    "id": "C0AC8",
    "district": "文山區"
  },
  {
    "altitude": "53",
    "name": "博嘉國小",
    "latitude": "25.0040",
    "longitude": "121.5671",
    "county": "台北市",
    "id": "A1AA9",
    "district": "文山區"
  },
  {
    "altitude": "57",
    "name": "深坑",
    "latitude": "25.0031",
    "longitude": "121.6095",
    "county": "新北市",
    "id": "C0AD2",
    "district": "深坑區"
  },
  {
    "altitude": "10",
    "name": "板橋",
    "latitude": "24.9993",
    "longitude": "121.4338",
    "county": "新北市",
    "id": "46688",
    "district": "板橋區"
  },
  {
    "altitude": "204",
    "name": "石碇",
    "latitude": "24.9957",
    "longitude": "121.6546",
    "county": "新北市",
    "id": "C0A64",
    "district": "石碇區"
  },
  {
    "altitude": "25",
    "name": "中和",
    "latitude": "24.9945",
    "longitude": "121.4822",
    "county": "新北市",
    "id": "C0AG9",
    "district": "中和區"
  },
  {
    "altitude": "105",
    "name": "桃園",
    "latitude": "24.9942",
    "longitude": "121.3150",
    "county": "桃園縣",
    "id": "C0C48",
    "district": "桃園市"
  },
  {
    "altitude": "250",
    "name": "石碇",
    "latitude": "24.9936",
    "longitude": "121.6494",
    "county": "新北市",
    "id": "01A13",
    "district": "石碇區"
  },
  {
    "altitude": "32",
    "name": "中和",
    "latitude": "24.9919",
    "longitude": "121.5078",
    "county": "新北市",
    "id": "C0AC9",
    "district": "中和區"
  },
  {
    "altitude": "60",
    "name": "仙跡",
    "latitude": "24.9911",
    "longitude": "121.5350",
    "county": "台北市",
    "id": "A1AG7",
    "district": "文山區"
  },
  {
    "altitude": "42",
    "name": "脾腹",
    "latitude": "24.9882",
    "longitude": "121.5371",
    "county": "台北市",
    "id": "A1AB1",
    "district": "文山區"
  },
  {
    "altitude": "39",
    "name": "北政國中",
    "latitude": "24.9862",
    "longitude": "121.5693",
    "county": "台北市",
    "id": "A1AB0",
    "district": "文山區"
  },
  {
    "altitude": "25",
    "name": "指南",
    "latitude": "24.9833",
    "longitude": "121.5721",
    "county": "台北市",
    "id": "A1AC4",
    "district": "文山區"
  },
  {
    "altitude": "380",
    "name": "火燒寮",
    "latitude": "24.9828",
    "longitude": "121.7414",
    "county": "新北市",
    "id": "01A20",
    "district": "平溪區"
  },
  {
    "altitude": "10",
    "name": "山佳",
    "latitude": "24.9758",
    "longitude": "121.3939",
    "county": "新北市",
    "id": "C0A52",
    "district": "樹林區"
  },
  {
    "altitude": "32",
    "name": "土城",
    "latitude": "24.9749",
    "longitude": "121.4369",
    "county": "新北市",
    "id": "C0AD4",
    "district": "土城區"
  },
  {
    "altitude": "403",
    "name": "太平",
    "latitude": "24.9736",
    "longitude": "121.8200",
    "county": "新北市",
    "id": "L1A84",
    "district": "雙溪區"
  },
  {
    "altitude": "460",
    "name": "泰平",
    "latitude": "24.9731",
    "longitude": "121.8153",
    "county": "新北市",
    "id": "C0A55",
    "district": "雙溪區"
  },
  {
    "altitude": "105",
    "name": "新屋",
    "latitude": "24.9714",
    "longitude": "121.1069",
    "county": "桃園縣",
    "id": "C0C45",
    "district": "新屋鄉"
  },
  {
    "altitude": "317",
    "name": "貓空",
    "latitude": "24.9707",
    "longitude": "121.5871",
    "county": "台北市",
    "id": "A1AD6",
    "district": "文山區"
  },
  {
    "altitude": "151",
    "name": "中壢",
    "latitude": "24.9695",
    "longitude": "121.1771",
    "county": "桃園縣",
    "id": "C0C52",
    "district": "中壢市"
  },
  {
    "altitude": "24",
    "name": "新店",
    "latitude": "24.9608",
    "longitude": "121.5165",
    "county": "新北市",
    "id": "A0A9M",
    "district": "新店區"
  },
  {
    "altitude": "84",
    "name": "鶯歌",
    "latitude": "24.9530",
    "longitude": "121.3372",
    "county": "新北市",
    "id": "C0AD5",
    "district": "鶯歌區"
  },
  {
    "altitude": "530",
    "name": "十三股",
    "latitude": "24.9458",
    "longitude": "121.6414",
    "county": "新北市",
    "id": "L1A82",
    "district": "石碇區"
  },
  {
    "altitude": "106",
    "name": "水尾",
    "latitude": "24.9419",
    "longitude": "121.0789",
    "county": "桃園縣",
    "id": "C1C51",
    "district": "楊梅市"
  },
  {
    "altitude": "55",
    "name": "三峽",
    "latitude": "24.9408",
    "longitude": "121.3615",
    "county": "新北市",
    "id": "C0AC6",
    "district": "三峽區"
  },
  {
    "altitude": "33",
    "name": "三峽",
    "latitude": "24.9403",
    "longitude": "121.3478",
    "county": "新北市",
    "id": "01A22",
    "district": "三峽區"
  },
  {
    "altitude": "300",
    "name": "坪林",
    "latitude": "24.9397",
    "longitude": "121.7014",
    "county": "新北市",
    "id": "C0A53",
    "district": "坪林區"
  },
  {
    "altitude": "210",
    "name": "坪林",
    "latitude": "24.9386",
    "longitude": "121.7056",
    "county": "新北市",
    "id": "L1A83",
    "district": "坪林區"
  },
  {
    "altitude": "200",
    "name": "坪林",
    "latitude": "24.9370",
    "longitude": "121.7070",
    "county": "新北市",
    "id": "01A17",
    "district": "坪林區"
  },
  {
    "altitude": "435",
    "name": "四十份",
    "latitude": "24.9358",
    "longitude": "121.5850",
    "county": "新北市",
    "id": "C1A9N",
    "district": "新店區"
  },
  {
    "altitude": "157",
    "name": "八德",
    "latitude": "24.9305",
    "longitude": "121.2750",
    "county": "桃園縣",
    "id": "C0C49",
    "district": "八德市"
  },
  {
    "altitude": "180",
    "name": "八德",
    "latitude": "24.9289",
    "longitude": "121.2833",
    "county": "桃園縣",
    "id": "C1C49",
    "district": "八德市"
  },
  {
    "altitude": "70",
    "name": "屈尺",
    "latitude": "24.9242",
    "longitude": "121.5381",
    "county": "新北市",
    "id": "C0A58",
    "district": "新店區"
  },
  {
    "altitude": "187",
    "name": "楊梅",
    "latitude": "24.9228",
    "longitude": "121.1400",
    "county": "桃園縣",
    "id": "C1C50",
    "district": "楊梅市"
  },
  {
    "altitude": "181",
    "name": "楊梅",
    "latitude": "24.9227",
    "longitude": "121.1401",
    "county": "桃園縣",
    "id": "C0C50",
    "district": "楊梅市"
  },
  {
    "altitude": "104",
    "name": "湖口",
    "latitude": "24.9111",
    "longitude": "121.0358",
    "county": "新竹縣",
    "id": "C1D37",
    "district": "湖口鄉"
  },
  {
    "altitude": "79",
    "name": "湖口",
    "latitude": "24.9111",
    "longitude": "121.0358",
    "county": "新竹縣",
    "id": "C0D37",
    "district": "湖口鄉"
  },
  {
    "altitude": "8",
    "name": "北關",
    "latitude": "24.9092",
    "longitude": "121.8653",
    "county": "宜蘭縣",
    "id": "C1U58",
    "district": "頭城鎮"
  },
  {
    "altitude": "202",
    "name": "翡翠",
    "latitude": "24.9089",
    "longitude": "121.5719",
    "county": "新北市",
    "id": "L1A79",
    "district": "新店區"
  },
  {
    "altitude": "378",
    "name": "九芎根",
    "latitude": "24.9042",
    "longitude": "121.6417",
    "county": "新北市",
    "id": "L1A81",
    "district": "石碇區"
  },
  {
    "altitude": "208",
    "name": "平鎮",
    "latitude": "24.8994",
    "longitude": "121.2064",
    "county": "桃園縣",
    "id": "C0C65",
    "district": "平鎮市"
  },
  {
    "altitude": "386",
    "name": "碧湖",
    "latitude": "24.8944",
    "longitude": "121.7375",
    "county": "新北市",
    "id": "L1A80",
    "district": "坪林區"
  },
  {
    "altitude": "401",
    "name": "四堵",
    "latitude": "24.8939",
    "longitude": "121.7375",
    "county": "新北市",
    "id": "C0A54",
    "district": "坪林區"
  },
  {
    "altitude": "360",
    "name": "碧湖",
    "latitude": "24.8928",
    "longitude": "121.7372",
    "county": "新北市",
    "id": "01A19",
    "district": "坪林區"
  },
  {
    "altitude": "600",
    "name": "大豹",
    "latitude": "24.8861",
    "longitude": "121.4164",
    "county": "新北市",
    "id": "01A21",
    "district": "三峽區"
  },
  {
    "altitude": "209",
    "name": "大溪",
    "latitude": "24.8847",
    "longitude": "121.2569",
    "county": "桃園縣",
    "id": "C0C63",
    "district": "大溪鎮"
  },
  {
    "altitude": "778",
    "name": "熊空山",
    "latitude": "24.8753",
    "longitude": "121.4517",
    "county": "新北市",
    "id": "01AG1",
    "district": "三峽區"
  },
  {
    "altitude": "143",
    "name": "新豐",
    "latitude": "24.8706",
    "longitude": "120.9772",
    "county": "新竹縣",
    "id": "C0D59",
    "district": "新豐鄉"
  },
  {
    "altitude": "916",
    "name": "大桶山",
    "latitude": "24.8700",
    "longitude": "121.5664",
    "county": "新北市",
    "id": "01A44",
    "district": "新店區"
  },
  {
    "altitude": "270",
    "name": "龍潭",
    "latitude": "24.8564",
    "longitude": "121.2164",
    "county": "桃園縣",
    "id": "C0C61",
    "district": "龍潭鄉"
  },
  {
    "altitude": "6",
    "name": "頭城",
    "latitude": "24.8539",
    "longitude": "121.8064",
    "county": "宜蘭縣",
    "id": "C1U59",
    "district": "頭城鎮"
  },
  {
    "altitude": "223",
    "name": "打鐵坑",
    "latitude": "24.8518",
    "longitude": "121.1426",
    "county": "新竹縣",
    "id": "C0D48",
    "district": "新埔鎮"
  },
  {
    "altitude": "387",
    "name": "桶後",
    "latitude": "24.8500",
    "longitude": "121.5917",
    "county": "新北市",
    "id": "C0A57",
    "district": "烏來區"
  },
  {
    "altitude": "65",
    "name": "新埔",
    "latitude": "24.8467",
    "longitude": "121.0292",
    "county": "新竹縣",
    "id": "C1D38",
    "district": "新埔鎮"
  },
  {
    "altitude": "398",
    "name": "龜山島",
    "latitude": "24.8414",
    "longitude": "121.9531",
    "county": "宜蘭縣",
    "id": "C0U75",
    "district": "頭城鎮"
  },
  {
    "altitude": "27",
    "name": "新竹",
    "latitude": "24.8300",
    "longitude": "121.0061",
    "county": "新竹縣",
    "id": "46757",
    "district": "竹北市"
  },
  {
    "altitude": "482",
    "name": "復興",
    "latitude": "24.8221",
    "longitude": "121.3443",
    "county": "桃園縣",
    "id": "C0C46",
    "district": "復興鄉"
  },
  {
    "altitude": "10",
    "name": "礁溪",
    "latitude": "24.8203",
    "longitude": "121.7592",
    "county": "宜蘭縣",
    "id": "C0U60",
    "district": "礁溪鄉"
  },
  {
    "altitude": "142",
    "name": "石門後池",
    "latitude": "24.8192",
    "longitude": "121.2361",
    "county": "桃園縣",
    "id": "01C40",
    "district": "龍潭鄉"
  },
  {
    "altitude": "146",
    "name": "關西",
    "latitude": "24.8001",
    "longitude": "121.1657",
    "county": "新竹縣",
    "id": "C0D39",
    "district": "關西鎮"
  },
  {
    "altitude": "350",
    "name": "霞雲",
    "latitude": "24.8000",
    "longitude": "121.3500",
    "county": "桃園縣",
    "id": "21C14",
    "district": "復興鄉"
  },
  {
    "altitude": "268",
    "name": "大礁溪",
    "latitude": "24.7878",
    "longitude": "121.6700",
    "county": "宜蘭縣",
    "id": "C1U61",
    "district": "礁溪鄉"
  },
  {
    "altitude": "500",
    "name": "福山",
    "latitude": "24.7789",
    "longitude": "121.4817",
    "county": "新北市",
    "id": "01A43",
    "district": "烏來區"
  },
  {
    "altitude": "405",
    "name": "福山",
    "latitude": "24.7783",
    "longitude": "121.4946",
    "county": "新北市",
    "id": "C0A56",
    "district": "烏來區"
  },
  {
    "altitude": "527",
    "name": "下盆",
    "latitude": "24.7726",
    "longitude": "121.5304",
    "county": "新北市",
    "id": "C1A63",
    "district": "烏來區"
  },
  {
    "altitude": "147",
    "name": "竹東",
    "latitude": "24.7693",
    "longitude": "121.0499",
    "county": "新竹縣",
    "id": "C0D56",
    "district": "竹東鎮"
  },
  {
    "altitude": "462",
    "name": "飛鳳山",
    "latitude": "24.7683",
    "longitude": "121.1107",
    "county": "新竹縣",
    "id": "C1D63",
    "district": "芎林鄉"
  },
  {
    "altitude": "7",
    "name": "宜蘭",
    "latitude": "24.7656",
    "longitude": "121.7479",
    "county": "宜蘭縣",
    "id": "46708",
    "district": "宜蘭市"
  },
  {
    "altitude": "517",
    "name": "雙連埤",
    "latitude": "24.7547",
    "longitude": "121.6331",
    "county": "宜蘭縣",
    "id": "C0U52",
    "district": "員山鄉"
  },
  {
    "altitude": "15",
    "name": "香山",
    "latitude": "24.7467",
    "longitude": "120.9056",
    "county": "新竹市",
    "id": "C0D57",
    "district": "香山區"
  },
  {
    "altitude": "17",
    "name": "壯圍",
    "latitude": "24.7456",
    "longitude": "121.7814",
    "county": "宜蘭縣",
    "id": "C0U62",
    "district": "壯圍鄉"
  },
  {
    "altitude": "120",
    "name": "寶山",
    "latitude": "24.7381",
    "longitude": "121.0178",
    "county": "新竹縣",
    "id": "C0D58",
    "district": "寶山鄉"
  },
  {
    "altitude": "839",
    "name": "鳥嘴山",
    "latitude": "24.7192",
    "longitude": "121.2839",
    "county": "新竹縣",
    "id": "C1D40",
    "district": "尖石鄉"
  },
  {
    "altitude": "140",
    "name": "再連",
    "latitude": "24.7169",
    "longitude": "121.6711",
    "county": "宜蘭縣",
    "id": "C1U63",
    "district": "員山鄉"
  },
  {
    "altitude": "620",
    "name": "高義",
    "latitude": "24.7167",
    "longitude": "121.3500",
    "county": "桃園縣",
    "id": "21C08",
    "district": "復興鄉"
  },
  {
    "altitude": "227",
    "name": "橫山",
    "latitude": "24.7117",
    "longitude": "121.1172",
    "county": "新竹縣",
    "id": "C0D54",
    "district": "橫山鄉"
  },
  {
    "altitude": "19",
    "name": "竹南",
    "latitude": "24.7108",
    "longitude": "120.8808",
    "county": "苗栗縣",
    "id": "C0E42",
    "district": "竹南鎮"
  },
  {
    "altitude": "0",
    "name": "蘇樂",
    "latitude": "24.7006",
    "longitude": "121.3568",
    "county": "桃園縣",
    "id": "swc15",
    "district": "復興鄉"
  },
  {
    "altitude": "87",
    "name": "峨眉",
    "latitude": "24.6924",
    "longitude": "121.0091",
    "county": "新竹縣",
    "id": "C0D43",
    "district": "峨眉鄉"
  },
  {
    "altitude": "100",
    "name": "峨眉",
    "latitude": "24.6922",
    "longitude": "121.0089",
    "county": "新竹縣",
    "id": "C1D43",
    "district": "峨眉鄉"
  },
  {
    "altitude": "1374",
    "name": "拉拉山",
    "latitude": "24.6903",
    "longitude": "121.4039",
    "county": "桃園縣",
    "id": "A0C54",
    "district": "復興鄉"
  },
  {
    "altitude": "26",
    "name": "頭份",
    "latitude": "24.6900",
    "longitude": "120.9042",
    "county": "苗栗縣",
    "id": "C0E73",
    "district": "頭份鎮"
  },
  {
    "altitude": "15",
    "name": "五結",
    "latitude": "24.6887",
    "longitude": "121.7902",
    "county": "宜蘭縣",
    "id": "C0U78",
    "district": "五結鄉"
  },
  {
    "altitude": "24",
    "name": "羅東",
    "latitude": "24.6850",
    "longitude": "121.7406",
    "county": "宜蘭縣",
    "id": "C0U64",
    "district": "羅東鎮"
  },
  {
    "altitude": "1220",
    "name": "巴陵",
    "latitude": "24.6833",
    "longitude": "121.3833",
    "county": "桃園縣",
    "id": "21C07",
    "district": "復興鄉"
  },
  {
    "altitude": "523",
    "name": "梅花",
    "latitude": "24.6801",
    "longitude": "121.2004",
    "county": "新竹縣",
    "id": "C0D36",
    "district": "尖石鄉"
  },
  {
    "altitude": "494",
    "name": "玉蘭",
    "latitude": "24.6772",
    "longitude": "121.5789",
    "county": "宜蘭縣",
    "id": "C0U65",
    "district": "大同鄉"
  },
  {
    "altitude": "103",
    "name": "三星",
    "latitude": "24.6725",
    "longitude": "121.6461",
    "county": "宜蘭縣",
    "id": "C1U66",
    "district": "三星鄉"
  },
  {
    "altitude": "780",
    "name": "玉峰",
    "latitude": "24.6667",
    "longitude": "121.3000",
    "county": "新竹縣",
    "id": "21D15",
    "district": "尖石鄉"
  },
  {
    "altitude": "0",
    "name": "玉峰",
    "latitude": "24.6545",
    "longitude": "121.3056",
    "county": "新竹縣",
    "id": "swc16",
    "district": "尖石鄉"
  },
  {
    "altitude": "718",
    "name": "外坪",
    "latitude": "24.6462",
    "longitude": "121.0829",
    "county": "新竹縣",
    "id": "C1D64",
    "district": "北埔鄉"
  },
  {
    "altitude": "280",
    "name": "牛鬥",
    "latitude": "24.6394",
    "longitude": "121.5653",
    "county": "宜蘭縣",
    "id": "C1U50",
    "district": "大同鄉"
  },
  {
    "altitude": "20",
    "name": "造橋",
    "latitude": "24.6388",
    "longitude": "120.8566",
    "county": "苗栗縣",
    "id": "C0E74",
    "district": "造橋鄉"
  },
  {
    "altitude": "147",
    "name": "寒溪",
    "latitude": "24.6361",
    "longitude": "121.7083",
    "county": "宜蘭縣",
    "id": "C1U67",
    "district": "冬山鄉"
  },
  {
    "altitude": "0",
    "name": "下田埔",
    "latitude": "24.6359",
    "longitude": "121.2733",
    "county": "新竹縣",
    "id": "swc17",
    "district": "尖石鄉"
  },
  {
    "altitude": "1279",
    "name": "太閣南",
    "latitude": "24.6347",
    "longitude": "121.1522",
    "county": "新竹縣",
    "id": "C1D42",
    "district": "五峰鄉"
  },
  {
    "altitude": "22",
    "name": "冬山",
    "latitude": "24.6342",
    "longitude": "121.7853",
    "county": "宜蘭縣",
    "id": "C0U68",
    "district": "冬山鄉"
  },
  {
    "altitude": "1150",
    "name": "池端",
    "latitude": "24.6333",
    "longitude": "121.4667",
    "county": "宜蘭縣",
    "id": "21U11",
    "district": "大同鄉"
  },
  {
    "altitude": "1260",
    "name": "嘎拉賀",
    "latitude": "24.6333",
    "longitude": "121.4000",
    "county": "桃園縣",
    "id": "21C09",
    "district": "復興鄉"
  },
  {
    "altitude": "101",
    "name": "新寮",
    "latitude": "24.6275",
    "longitude": "121.7431",
    "county": "宜蘭縣",
    "id": "C1U69",
    "district": "冬山鄉"
  },
  {
    "altitude": "122",
    "name": "大河",
    "latitude": "24.6190",
    "longitude": "120.9382",
    "county": "苗栗縣",
    "id": "C0E44",
    "district": "三灣鄉"
  },
  {
    "altitude": "41",
    "name": "後龍",
    "latitude": "24.6081",
    "longitude": "120.7756",
    "county": "苗栗縣",
    "id": "C1E54",
    "district": "後龍鎮"
  },
  {
    "altitude": "32",
    "name": "後龍",
    "latitude": "24.6081",
    "longitude": "120.7756",
    "county": "苗栗縣",
    "id": "C0E54",
    "district": "後龍鎮"
  },
  {
    "altitude": "258",
    "name": "南庄",
    "latitude": "24.6032",
    "longitude": "120.9921",
    "county": "苗栗縣",
    "id": "C0E43",
    "district": "南庄鄉"
  },
  {
    "altitude": "25",
    "name": "蘇澳",
    "latitude": "24.6017",
    "longitude": "121.8644",
    "county": "宜蘭縣",
    "id": "46706",
    "district": "蘇澳鎮"
  },
  {
    "altitude": "229",
    "name": "寒溪",
    "latitude": "24.5963",
    "longitude": "121.6774",
    "county": "宜蘭縣",
    "id": "88U83",
    "district": "大同鄉"
  },
  {
    "altitude": "109",
    "name": "明德",
    "latitude": "24.5864",
    "longitude": "120.8786",
    "county": "苗栗縣",
    "id": "C1E55",
    "district": "頭屋鄉"
  },
  {
    "altitude": "84",
    "name": "明德",
    "latitude": "24.5864",
    "longitude": "120.8786",
    "county": "苗栗縣",
    "id": "C0E55",
    "district": "頭屋鄉"
  },
  {
    "altitude": "2000",
    "name": "西丘斯山",
    "latitude": "24.5833",
    "longitude": "121.3500",
    "county": "新竹縣",
    "id": "21D35",
    "district": "尖石鄉"
  },
  {
    "altitude": "1290",
    "name": "白蘭",
    "latitude": "24.5817",
    "longitude": "121.0719",
    "county": "新竹縣",
    "id": "C1D41",
    "district": "五峰鄉"
  },
  {
    "altitude": "125",
    "name": "南勢",
    "latitude": "24.5744",
    "longitude": "120.7264",
    "county": "苗栗縣",
    "id": "C1E60",
    "district": "後龍鎮"
  },
  {
    "altitude": "492",
    "name": "古魯",
    "latitude": "24.5733",
    "longitude": "121.6633",
    "county": "宜蘭縣",
    "id": "C1U51",
    "district": "大同鄉"
  },
  {
    "altitude": "62",
    "name": "苗栗",
    "latitude": "24.5667",
    "longitude": "120.8164",
    "county": "苗栗縣",
    "id": "C0E75",
    "district": "苗栗市"
  },
  {
    "altitude": "630",
    "name": "鎮西堡",
    "latitude": "24.5667",
    "longitude": "121.3000",
    "county": "新竹縣",
    "id": "21D17",
    "district": "尖石鄉"
  },
  {
    "altitude": "576",
    "name": "鳳美",
    "latitude": "24.5567",
    "longitude": "121.0261",
    "county": "苗栗縣",
    "id": "C1E48",
    "district": "南庄鄉"
  },
  {
    "altitude": "53",
    "name": "西湖",
    "latitude": "24.5516",
    "longitude": "120.7403",
    "county": "苗栗縣",
    "id": "C0E81",
    "district": "西湖鄉"
  },
  {
    "altitude": "1620",
    "name": "白石",
    "latitude": "24.5500",
    "longitude": "121.2167",
    "county": "新竹縣",
    "id": "21D16",
    "district": "尖石鄉"
  },
  {
    "altitude": "220",
    "name": "獅潭",
    "latitude": "24.5410",
    "longitude": "120.9120",
    "county": "苗栗縣",
    "id": "C0E82",
    "district": "獅潭鄉"
  },
  {
    "altitude": "1209",
    "name": "南礦",
    "latitude": "24.5403",
    "longitude": "120.9947",
    "county": "苗栗縣",
    "id": "C1E67",
    "district": "南庄鄉"
  },
  {
    "altitude": "750",
    "name": "東澳嶺",
    "latitude": "24.5393",
    "longitude": "121.8406",
    "county": "宜蘭縣",
    "id": "C1U84",
    "district": "南澳鄉"
  },
  {
    "altitude": "1956",
    "name": "雪霸",
    "latitude": "24.5287",
    "longitude": "121.1079",
    "county": "新竹縣",
    "id": "C0D55",
    "district": "五峰鄉"
  },
  {
    "altitude": "83",
    "name": "公館",
    "latitude": "24.5286",
    "longitude": "120.8226",
    "county": "苗栗縣",
    "id": "C1E77",
    "district": "公館鄉"
  },
  {
    "altitude": "32",
    "name": "東澳",
    "latitude": "24.5206",
    "longitude": "121.8331",
    "county": "宜蘭縣",
    "id": "C0U76",
    "district": "南澳鄉"
  },
  {
    "altitude": "392",
    "name": "和興",
    "latitude": "24.5158",
    "longitude": "120.9069",
    "county": "苗栗縣",
    "id": "C1E56",
    "district": "獅潭鄉"
  },
  {
    "altitude": "1810",
    "name": "太平山",
    "latitude": "24.5072",
    "longitude": "121.5175",
    "county": "宜蘭縣",
    "id": "C0U71",
    "district": "大同鄉"
  },
  {
    "altitude": "146",
    "name": "公館",
    "latitude": "24.4975",
    "longitude": "120.8208",
    "county": "苗栗縣",
    "id": "C1E57",
    "district": "公館鄉"
  },
  {
    "altitude": "737",
    "name": "八卦",
    "latitude": "24.4936",
    "longitude": "120.9194",
    "county": "苗栗縣",
    "id": "C1E70",
    "district": "泰安鄉"
  },
  {
    "altitude": "160",
    "name": "銅鑼",
    "latitude": "24.4915",
    "longitude": "120.7826",
    "county": "苗栗縣",
    "id": "C0E78",
    "district": "銅鑼鄉"
  },
  {
    "altitude": "1409",
    "name": "泰安",
    "latitude": "24.4906",
    "longitude": "120.9594",
    "county": "苗栗縣",
    "id": "C1E72",
    "district": "泰安鄉"
  },
  {
    "altitude": "618",
    "name": "烏石鼻",
    "latitude": "24.4847",
    "longitude": "121.8317",
    "county": "宜蘭縣",
    "id": "C1U83",
    "district": "蘇澳鎮"
  },
  {
    "altitude": "40",
    "name": "通霄",
    "latitude": "24.4736",
    "longitude": "120.6964",
    "county": "苗栗縣",
    "id": "C0E59",
    "district": "通霄鎮"
  },
  {
    "altitude": "70",
    "name": "土城",
    "latitude": "24.4733",
    "longitude": "120.6961",
    "county": "苗栗縣",
    "id": "C1E59",
    "district": "通霄鎮"
  },
  {
    "altitude": "850",
    "name": "馬都安",
    "latitude": "24.4531",
    "longitude": "120.9219",
    "county": "苗栗縣",
    "id": "C0E61",
    "district": "泰安鄉"
  },
  {
    "altitude": "19",
    "name": "苑裡",
    "latitude": "24.4503",
    "longitude": "120.6500",
    "county": "苗栗縣",
    "id": "C0E76",
    "district": "苑裡鎮"
  },
  {
    "altitude": "5",
    "name": "南澳",
    "latitude": "24.4494",
    "longitude": "121.8103",
    "county": "宜蘭縣",
    "id": "C0U77",
    "district": "南澳鄉"
  },
  {
    "altitude": "6",
    "name": "金門(合)",
    "latitude": "24.4427",
    "longitude": "118.4319",
    "county": "金門縣",
    "id": "A0W03",
    "district": "金湖鎮"
  },
  {
    "altitude": "1260",
    "name": "南山",
    "latitude": "24.4392",
    "longitude": "121.3733",
    "county": "宜蘭縣",
    "id": "C1U72",
    "district": "大同鄉"
  },
  {
    "altitude": "60",
    "name": "苑里",
    "latitude": "24.4353",
    "longitude": "120.6719",
    "county": "苗栗縣",
    "id": "C0E58",
    "district": "苑裡鎮"
  },
  {
    "altitude": "977",
    "name": "南勢山",
    "latitude": "24.4236",
    "longitude": "120.9156",
    "county": "苗栗縣",
    "id": "C1E68",
    "district": "泰安鄉"
  },
  {
    "altitude": "320",
    "name": "大湖",
    "latitude": "24.4189",
    "longitude": "120.8664",
    "county": "苗栗縣",
    "id": "C0E52",
    "district": "大湖鄉"
  },
  {
    "altitude": "350",
    "name": "大湖",
    "latitude": "24.4189",
    "longitude": "120.8664",
    "county": "苗栗縣",
    "id": "C1E52",
    "district": "大湖鄉"
  },
  {
    "altitude": "341",
    "name": "三義",
    "latitude": "24.4128",
    "longitude": "120.7578",
    "county": "苗栗縣",
    "id": "C0E53",
    "district": "三義鄉"
  },
  {
    "altitude": "48",
    "name": "金門",
    "latitude": "24.4074",
    "longitude": "118.2893",
    "county": "金門縣",
    "id": "46711",
    "district": "金城鎮"
  },
  {
    "altitude": "786",
    "name": "南湖",
    "latitude": "24.4028",
    "longitude": "120.8294",
    "county": "苗栗縣",
    "id": "C1E69",
    "district": "大湖鄉"
  },
  {
    "altitude": "1325",
    "name": "松安",
    "latitude": "24.3994",
    "longitude": "120.9778",
    "county": "苗栗縣",
    "id": "C1E46",
    "district": "泰安鄉"
  },
  {
    "altitude": "2036",
    "name": "思源",
    "latitude": "24.3989",
    "longitude": "121.3486",
    "county": "宜蘭縣",
    "id": "C0U73",
    "district": "大同鄉"
  },
  {
    "altitude": "683",
    "name": "觀音海岸",
    "latitude": "24.3851",
    "longitude": "121.7703",
    "county": "宜蘭縣",
    "id": "C1U85",
    "district": "南澳鄉"
  },
  {
    "altitude": "1734",
    "name": "武陵",
    "latitude": "24.3800",
    "longitude": "121.3600",
    "county": "台中市",
    "id": "D2F23",
    "district": "和平區"
  },
  {
    "altitude": "950",
    "name": "象鼻",
    "latitude": "24.3703",
    "longitude": "120.9322",
    "county": "苗栗縣",
    "id": "C1E45",
    "district": "泰安鄉"
  },
  {
    "altitude": "990",
    "name": "馬拉邦山",
    "latitude": "24.3692",
    "longitude": "120.8933",
    "county": "苗栗縣",
    "id": "C1E71",
    "district": "大湖鄉"
  },
  {
    "altitude": "90",
    "name": "大甲",
    "latitude": "24.3528",
    "longitude": "120.6339",
    "county": "台中市",
    "id": "C1F93",
    "district": "大甲區"
  },
  {
    "altitude": "100",
    "name": "大甲",
    "latitude": "24.3499",
    "longitude": "120.6324",
    "county": "台中市",
    "id": "C0F93",
    "district": "大甲區"
  },
  {
    "altitude": "149",
    "name": "外埔",
    "latitude": "24.3496",
    "longitude": "120.6975",
    "county": "台中市",
    "id": "C0F9Q",
    "district": "外埔區"
  },
  {
    "altitude": "326",
    "name": "新開",
    "latitude": "24.3494",
    "longitude": "120.8189",
    "county": "苗栗縣",
    "id": "C1E51",
    "district": "大湖鄉"
  },
  {
    "altitude": "30",
    "name": "大安",
    "latitude": "24.3474",
    "longitude": "120.5800",
    "county": "台中市",
    "id": "C0F9K",
    "district": "大安區"
  },
  {
    "altitude": "344",
    "name": "卓蘭",
    "latitude": "24.3148",
    "longitude": "120.8162",
    "county": "苗栗縣",
    "id": "C0E79",
    "district": "卓蘭鎮"
  },
  {
    "altitude": "26",
    "name": "清水",
    "latitude": "24.3140",
    "longitude": "120.5541",
    "county": "台中市",
    "id": "C0F9P",
    "district": "清水區"
  },
  {
    "altitude": "253",
    "name": "后里",
    "latitude": "24.3121",
    "longitude": "120.7215",
    "county": "台中市",
    "id": "C0F9L",
    "district": "后里區"
  },
  {
    "altitude": "345",
    "name": "卓蘭",
    "latitude": "24.3089",
    "longitude": "120.8031",
    "county": "苗栗縣",
    "id": "C1E50",
    "district": "卓蘭鎮"
  },
  {
    "altitude": "496",
    "name": "白布帆",
    "latitude": "24.2993",
    "longitude": "120.8973",
    "county": "苗栗縣",
    "id": "swc01",
    "district": "卓蘭鎮"
  },
  {
    "altitude": "535",
    "name": "雙崎",
    "latitude": "24.2903",
    "longitude": "120.8964",
    "county": "台中市",
    "id": "C0F90",
    "district": "和平區"
  },
  {
    "altitude": "2620",
    "name": "雪嶺",
    "latitude": "24.2825",
    "longitude": "121.0186",
    "county": "台中市",
    "id": "C1F94",
    "district": "和平區"
  },
  {
    "altitude": "290",
    "name": "石岡",
    "latitude": "24.2819",
    "longitude": "120.7621",
    "county": "台中市",
    "id": "C0F92",
    "district": "石岡區"
  },
  {
    "altitude": "280",
    "name": "石岡",
    "latitude": "24.2814",
    "longitude": "120.7622",
    "county": "台中市",
    "id": "C1F92",
    "district": "石岡區"
  },
  {
    "altitude": "930",
    "name": "烏石坑",
    "latitude": "24.2808",
    "longitude": "120.9375",
    "county": "台中市",
    "id": "C1F9H",
    "district": "和平區"
  },
  {
    "altitude": "189",
    "name": "神岡",
    "latitude": "24.2744",
    "longitude": "120.6506",
    "county": "台中市",
    "id": "C1F9I",
    "district": "神岡區"
  },
  {
    "altitude": "194",
    "name": "神岡",
    "latitude": "24.2742",
    "longitude": "120.6503",
    "county": "台中市",
    "id": "C0F9I",
    "district": "神岡區"
  },
  {
    "altitude": "500",
    "name": "伯公龍",
    "latitude": "24.2742",
    "longitude": "120.8411",
    "county": "台中市",
    "id": "C1F9F",
    "district": "東勢區"
  },
  {
    "altitude": "7",
    "name": "和中",
    "latitude": "24.2681",
    "longitude": "121.7333",
    "county": "花蓮縣",
    "id": "C0T9D",
    "district": "秀林鄉"
  },
  {
    "altitude": "2205",
    "name": "稍來",
    "latitude": "24.2675",
    "longitude": "120.9931",
    "county": "台中市",
    "id": "C1F89",
    "district": "和平區"
  },
  {
    "altitude": "32",
    "name": "梧棲",
    "latitude": "24.2587",
    "longitude": "120.5151",
    "county": "台中市",
    "id": "46777",
    "district": "梧棲區"
  },
  {
    "altitude": "1970",
    "name": "德基",
    "latitude": "24.2567",
    "longitude": "121.1820",
    "county": "台中市",
    "id": "C1F9W",
    "district": "和平區"
  },
  {
    "altitude": "230",
    "name": "豐原",
    "latitude": "24.2563",
    "longitude": "120.7123",
    "county": "台中市",
    "id": "C0F9M",
    "district": "豐原區"
  },
  {
    "altitude": "379",
    "name": "東勢",
    "latitude": "24.2482",
    "longitude": "120.8249",
    "county": "台中市",
    "id": "C0F85",
    "district": "東勢區"
  },
  {
    "altitude": "320",
    "name": "東勢",
    "latitude": "24.2481",
    "longitude": "120.8253",
    "county": "台中市",
    "id": "C1F85",
    "district": "東勢區"
  },
  {
    "altitude": "2215",
    "name": "梨山",
    "latitude": "24.2450",
    "longitude": "121.2377",
    "county": "台中市",
    "id": "C0F86",
    "district": "和平區"
  },
  {
    "altitude": "417",
    "name": "新伯公",
    "latitude": "24.2233",
    "longitude": "120.8328",
    "county": "台中市",
    "id": "C1F91",
    "district": "東勢區"
  },
  {
    "altitude": "253",
    "name": "橫山",
    "latitude": "24.2209",
    "longitude": "120.5993",
    "county": "台中市",
    "id": "C0F99",
    "district": "大雅區"
  },
  {
    "altitude": "175",
    "name": "潭子",
    "latitude": "24.2148",
    "longitude": "120.6958",
    "county": "台中市",
    "id": "C0F9O",
    "district": "潭子區"
  },
  {
    "altitude": "1260",
    "name": "洛韶",
    "latitude": "24.2064",
    "longitude": "121.4458",
    "county": "花蓮縣",
    "id": "C1T80",
    "district": "秀林鄉"
  },
  {
    "altitude": "1000",
    "name": "上谷關",
    "latitude": "24.2050",
    "longitude": "121.0108",
    "county": "台中市",
    "id": "C1F87",
    "district": "和平區"
  },
  {
    "altitude": "525",
    "name": "新社",
    "latitude": "24.2016",
    "longitude": "120.8075",
    "county": "台中市",
    "id": "C0F9V",
    "district": "新社區"
  },
  {
    "altitude": "2297",
    "name": "翠巒",
    "latitude": "24.1944",
    "longitude": "121.2186",
    "county": "南投縣",
    "id": "C1H85",
    "district": "仁愛鄉"
  },
  {
    "altitude": "2049",
    "name": "慈恩",
    "latitude": "24.1939",
    "longitude": "121.3803",
    "county": "花蓮縣",
    "id": "C1T81",
    "district": "秀林鄉"
  },
  {
    "altitude": "2823",
    "name": "大禹嶺",
    "latitude": "24.1879",
    "longitude": "121.3078",
    "county": "花蓮縣",
    "id": "C0T79",
    "district": "秀林鄉"
  },
  {
    "altitude": "20",
    "name": "龍井",
    "latitude": "24.1863",
    "longitude": "120.5208",
    "county": "台中市",
    "id": "C0F9R",
    "district": "龍井區"
  },
  {
    "altitude": "610",
    "name": "白冷",
    "latitude": "24.1844",
    "longitude": "120.9217",
    "county": "台中市",
    "id": "C1F9C",
    "district": "和平區"
  },
  {
    "altitude": "810",
    "name": "慶福山",
    "latitude": "24.1828",
    "longitude": "120.8397",
    "county": "台中市",
    "id": "C1F9G",
    "district": "東勢區"
  },
  {
    "altitude": "111",
    "name": "西屯",
    "latitude": "24.1820",
    "longitude": "120.6329",
    "county": "台中市",
    "id": "C0F9T",
    "district": "西屯區"
  },
  {
    "altitude": "550",
    "name": "天祥",
    "latitude": "24.1814",
    "longitude": "121.4875",
    "county": "花蓮縣",
    "id": "C0T82",
    "district": "秀林鄉"
  },
  {
    "altitude": "741",
    "name": "松鶴",
    "latitude": "24.1786",
    "longitude": "120.9778",
    "county": "台中市",
    "id": "swc13",
    "district": "和平區"
  },
  {
    "altitude": "145",
    "name": "大坑",
    "latitude": "24.1749",
    "longitude": "120.7141",
    "county": "台中市",
    "id": "C0F97",
    "district": "北屯區"
  },
  {
    "altitude": "200",
    "name": "布洛灣",
    "latitude": "24.1736",
    "longitude": "121.5797",
    "county": "花蓮縣",
    "id": "C1T83",
    "district": "秀林鄉"
  },
  {
    "altitude": "170",
    "name": "大坑",
    "latitude": "24.1733",
    "longitude": "120.7281",
    "county": "台中市",
    "id": "C1F97",
    "district": "北屯區"
  },
  {
    "altitude": "563",
    "name": "龍安",
    "latitude": "24.1619",
    "longitude": "120.8239",
    "county": "台中市",
    "id": "C1F9E",
    "district": "新社區"
  },
  {
    "altitude": "639",
    "name": "白毛台",
    "latitude": "24.1600",
    "longitude": "120.8789",
    "county": "台中市",
    "id": "C1F9D",
    "district": "新社區"
  },
  {
    "altitude": "70",
    "name": "太魯閣",
    "latitude": "24.1600",
    "longitude": "121.6150",
    "county": "花蓮縣",
    "id": "A0T78",
    "district": "秀林鄉"
  },
  {
    "altitude": "348",
    "name": "大肚",
    "latitude": "24.1547",
    "longitude": "120.5644",
    "county": "台中市",
    "id": "C1F00",
    "district": "大肚區"
  },
  {
    "altitude": "273",
    "name": "大肚",
    "latitude": "24.1547",
    "longitude": "120.5640",
    "county": "台中市",
    "id": "C0F00",
    "district": "大肚區"
  },
  {
    "altitude": "24",
    "name": "伸港",
    "latitude": "24.1505",
    "longitude": "120.4762",
    "county": "彰化縣",
    "id": "C0G89",
    "district": "伸港鄉"
  },
  {
    "altitude": "109",
    "name": "富世",
    "latitude": "24.1497",
    "longitude": "121.6219",
    "county": "花蓮縣",
    "id": "C0T9C",
    "district": "秀林鄉"
  },
  {
    "altitude": "84",
    "name": "臺中",
    "latitude": "24.1475",
    "longitude": "120.6759",
    "county": "台中市",
    "id": "46749",
    "district": "北區"
  },
  {
    "altitude": "3402",
    "name": "合歡山",
    "latitude": "24.1448",
    "longitude": "121.2641",
    "county": "南投縣",
    "id": "C0H9C",
    "district": "仁愛鄉"
  },
  {
    "altitude": "3171",
    "name": "合歡山莊",
    "latitude": "24.1444",
    "longitude": "121.2764",
    "county": "花蓮縣",
    "id": "A0Z08",
    "district": "秀林鄉"
  },
  {
    "altitude": "74",
    "name": "南屯",
    "latitude": "24.1389",
    "longitude": "120.6301",
    "county": "台中市",
    "id": "C0F9U",
    "district": "南屯區"
  },
  {
    "altitude": "1710",
    "name": "阿眉",
    "latitude": "24.1278",
    "longitude": "120.9861",
    "county": "南投縣",
    "id": "C1H9B",
    "district": "仁愛鄉"
  },
  {
    "altitude": "1676",
    "name": "瑞岩",
    "latitude": "24.1256",
    "longitude": "121.1750",
    "county": "南投縣",
    "id": "C1H86",
    "district": "仁愛鄉"
  },
  {
    "altitude": "3076",
    "name": "昆陽",
    "latitude": "24.1231",
    "longitude": "121.2654",
    "county": "南投縣",
    "id": "C0H99",
    "district": "仁愛鄉"
  },
  {
    "altitude": "706",
    "name": "三棧",
    "latitude": "24.1188",
    "longitude": "121.5970",
    "county": "花蓮縣",
    "id": "C1Z09",
    "district": "秀林鄉"
  },
  {
    "altitude": "1655",
    "name": "翠峰",
    "latitude": "24.1108",
    "longitude": "121.1967",
    "county": "南投縣",
    "id": "C1H00",
    "district": "仁愛鄉"
  },
  {
    "altitude": "43",
    "name": "烏日",
    "latitude": "24.1075",
    "longitude": "120.6230",
    "county": "台中市",
    "id": "C0F9S",
    "district": "烏日區"
  },
  {
    "altitude": "425",
    "name": "中竹林",
    "latitude": "24.1056",
    "longitude": "120.7433",
    "county": "台中市",
    "id": "C0F9A",
    "district": "太平區"
  },
  {
    "altitude": "425",
    "name": "中竹林",
    "latitude": "24.1056",
    "longitude": "120.7433",
    "county": "台中市",
    "id": "C1F9A",
    "district": "太平區"
  },
  {
    "altitude": "736",
    "name": "長福",
    "latitude": "24.1039",
    "longitude": "120.8717",
    "county": "南投縣",
    "id": "C1H92",
    "district": "國姓鄉"
  },
  {
    "altitude": "75",
    "name": "大里",
    "latitude": "24.0944",
    "longitude": "120.6922",
    "county": "台中市",
    "id": "C0F9N",
    "district": "大里區"
  },
  {
    "altitude": "934",
    "name": "清流",
    "latitude": "24.0828",
    "longitude": "120.9547",
    "county": "南投縣",
    "id": "C1H90",
    "district": "仁愛鄉"
  },
  {
    "altitude": "37",
    "name": "彰師大",
    "latitude": "24.0814",
    "longitude": "120.5567",
    "county": "彰化縣",
    "id": "A0G72",
    "district": "彰化市"
  },
  {
    "altitude": "98",
    "name": "彰化",
    "latitude": "24.0806",
    "longitude": "120.5469",
    "county": "彰化縣",
    "id": "C1G63",
    "district": "彰化市"
  },
  {
    "altitude": "17",
    "name": "鹿港",
    "latitude": "24.0769",
    "longitude": "120.4222",
    "county": "彰化縣",
    "id": "C0G64",
    "district": "鹿港鎮"
  },
  {
    "altitude": "723",
    "name": "清水林",
    "latitude": "24.0733",
    "longitude": "120.8122",
    "county": "台中市",
    "id": "C1F9J",
    "district": "太平區"
  },
  {
    "altitude": "130",
    "name": "桐林",
    "latitude": "24.0681",
    "longitude": "120.7272",
    "county": "台中市",
    "id": "C1F9B",
    "district": "霧峰區"
  },
  {
    "altitude": "660",
    "name": "水長流",
    "latitude": "24.0636",
    "longitude": "120.8525",
    "county": "南投縣",
    "id": "C1I19",
    "district": "國姓鄉"
  },
  {
    "altitude": "15",
    "name": "福興",
    "latitude": "24.0430",
    "longitude": "120.4295",
    "county": "彰化縣",
    "id": "C0G77",
    "district": "福興鄉"
  },
  {
    "altitude": "23",
    "name": "新城",
    "latitude": "24.0397",
    "longitude": "121.6012",
    "county": "花蓮縣",
    "id": "C0T84",
    "district": "新城鄉"
  },
  {
    "altitude": "27",
    "name": "秀水",
    "latitude": "24.0359",
    "longitude": "120.4957",
    "county": "彰化縣",
    "id": "C0G78",
    "district": "秀水鄉"
  },
  {
    "altitude": "1562",
    "name": "廬山",
    "latitude": "24.0350",
    "longitude": "121.1733",
    "county": "南投縣",
    "id": "C0I01",
    "district": "仁愛鄉"
  },
  {
    "altitude": "1306",
    "name": "龍澗",
    "latitude": "24.0250",
    "longitude": "121.4033",
    "county": "花蓮縣",
    "id": "C1T98",
    "district": "秀林鄉"
  },
  {
    "altitude": "1113",
    "name": "仁愛",
    "latitude": "24.0206",
    "longitude": "121.1228",
    "county": "南投縣",
    "id": "C1H87",
    "district": "仁愛鄉"
  },
  {
    "altitude": "791",
    "name": "南豐",
    "latitude": "24.0190",
    "longitude": "121.0805",
    "county": "南投縣",
    "id": "88H89",
    "district": "仁愛鄉"
  },
  {
    "altitude": "1318",
    "name": "凌霄",
    "latitude": "24.0189",
    "longitude": "121.0067",
    "county": "南投縣",
    "id": "C1H88",
    "district": "埔里鎮"
  },
  {
    "altitude": "27",
    "name": "花壇",
    "latitude": "24.0178",
    "longitude": "120.5441",
    "county": "彰化縣",
    "id": "C0G79",
    "district": "花壇鄉"
  },
  {
    "altitude": "110",
    "name": "芬園",
    "latitude": "24.0172",
    "longitude": "120.6131",
    "county": "彰化縣",
    "id": "C0G62",
    "district": "芬園鄉"
  },
  {
    "altitude": "133",
    "name": "芬園",
    "latitude": "24.0172",
    "longitude": "120.6131",
    "county": "彰化縣",
    "id": "C1G62",
    "district": "芬園鄉"
  },
  {
    "altitude": "15",
    "name": "埔鹽",
    "latitude": "24.0022",
    "longitude": "120.4236",
    "county": "彰化縣",
    "id": "C0G80",
    "district": "埔鹽鄉"
  },
  {
    "altitude": "75",
    "name": "草屯",
    "latitude": "23.9989",
    "longitude": "120.6547",
    "county": "南投縣",
    "id": "C1H96",
    "district": "草屯鎮"
  },
  {
    "altitude": "558",
    "name": "水源",
    "latitude": "23.9936",
    "longitude": "121.5292",
    "county": "花蓮縣",
    "id": "C0T9B",
    "district": "秀林鄉"
  },
  {
    "altitude": "1266",
    "name": "楓樹林",
    "latitude": "23.9886",
    "longitude": "121.0681",
    "county": "南投縣",
    "id": "C1I33",
    "district": "仁愛鄉"
  },
  {
    "altitude": "393",
    "name": "北山",
    "latitude": "23.9872",
    "longitude": "120.8664",
    "county": "南投縣",
    "id": "C1H93",
    "district": "國姓鄉"
  },
  {
    "altitude": "1555",
    "name": "萬大",
    "latitude": "23.9814",
    "longitude": "121.1236",
    "county": "南投縣",
    "id": "C1I02",
    "district": "仁愛鄉"
  },
  {
    "altitude": "16",
    "name": "花蓮",
    "latitude": "23.9770",
    "longitude": "121.6050",
    "county": "花蓮縣",
    "id": "46699",
    "district": "花蓮市"
  },
  {
    "altitude": "120",
    "name": "草屯",
    "latitude": "23.9754",
    "longitude": "120.6722",
    "county": "南投縣",
    "id": "C0H96",
    "district": "草屯鎮"
  },
  {
    "altitude": "50",
    "name": "吉安",
    "latitude": "23.9753",
    "longitude": "121.5547",
    "county": "花蓮縣",
    "id": "C1T85",
    "district": "吉安鄉"
  },
  {
    "altitude": "451",
    "name": "大肚城",
    "latitude": "23.9722",
    "longitude": "120.9442",
    "county": "南投縣",
    "id": "C1H89",
    "district": "埔里鎮"
  },
  {
    "altitude": "630",
    "name": "雙冬",
    "latitude": "23.9692",
    "longitude": "120.7942",
    "county": "南投縣",
    "id": "C1H94",
    "district": "草屯鎮"
  },
  {
    "altitude": "125",
    "name": "銅門",
    "latitude": "23.9675",
    "longitude": "121.4878",
    "county": "花蓮縣",
    "id": "C1T86",
    "district": "秀林鄉"
  },
  {
    "altitude": "732",
    "name": "埔里",
    "latitude": "23.9639",
    "longitude": "120.9831",
    "county": "南投縣",
    "id": "C1I25",
    "district": "埔里鎮"
  },
  {
    "altitude": "917",
    "name": "九份二山",
    "latitude": "23.9639",
    "longitude": "120.8372",
    "county": "南投縣",
    "id": "C1I23",
    "district": "國姓鄉"
  },
  {
    "altitude": "10",
    "name": "草湖",
    "latitude": "23.9614",
    "longitude": "120.3703",
    "county": "彰化縣",
    "id": "C1G68",
    "district": "芳苑鄉"
  },
  {
    "altitude": "725",
    "name": "外大坪",
    "latitude": "23.9606",
    "longitude": "120.9097",
    "county": "南投縣",
    "id": "C1I24",
    "district": "埔里鎮"
  },
  {
    "altitude": "1275",
    "name": "奧萬大",
    "latitude": "23.9547",
    "longitude": "121.1706",
    "county": "南投縣",
    "id": "C1I32",
    "district": "仁愛鄉"
  },
  {
    "altitude": "527",
    "name": "九份二山",
    "latitude": "23.9536",
    "longitude": "120.8487",
    "county": "南投縣",
    "id": "swc02",
    "district": "國姓鄉"
  },
  {
    "altitude": "27",
    "name": "溪湖",
    "latitude": "23.9517",
    "longitude": "120.4711",
    "county": "彰化縣",
    "id": "C0G66",
    "district": "溪湖鎮"
  },
  {
    "altitude": "121",
    "name": "溪湖",
    "latitude": "23.9500",
    "longitude": "120.4708",
    "county": "彰化縣",
    "id": "C1G66",
    "district": "溪湖鎮"
  },
  {
    "altitude": "26",
    "name": "埔心",
    "latitude": "23.9487",
    "longitude": "120.5176",
    "county": "彰化縣",
    "id": "C0G81",
    "district": "埔心鄉"
  },
  {
    "altitude": "34",
    "name": "員林",
    "latitude": "23.9483",
    "longitude": "120.5775",
    "county": "彰化縣",
    "id": "C0G65",
    "district": "員林鎮"
  },
  {
    "altitude": "135",
    "name": "鯉魚潭",
    "latitude": "23.9374",
    "longitude": "121.5008",
    "county": "花蓮縣",
    "id": "C0T87",
    "district": "壽豐鄉"
  },
  {
    "altitude": "529",
    "name": "蘆竹湳",
    "latitude": "23.9358",
    "longitude": "120.8039",
    "county": "南投縣",
    "id": "C1I21",
    "district": "中寮鄉"
  },
  {
    "altitude": "429",
    "name": "六分寮",
    "latitude": "23.9266",
    "longitude": "120.6302",
    "county": "南投縣",
    "id": "C1H97",
    "district": "南投市"
  },
  {
    "altitude": "601",
    "name": "北坑",
    "latitude": "23.9264",
    "longitude": "120.9989",
    "county": "南投縣",
    "id": "C1I26",
    "district": "埔里鎮"
  },
  {
    "altitude": "12",
    "name": "芳苑",
    "latitude": "23.9240",
    "longitude": "120.3119",
    "county": "彰化縣",
    "id": "C0G87",
    "district": "芳苑鄉"
  },
  {
    "altitude": "948",
    "name": "武界",
    "latitude": "23.9147",
    "longitude": "121.0442",
    "county": "南投縣",
    "id": "C1I03",
    "district": "仁愛鄉"
  },
  {
    "altitude": "1098",
    "name": "樟湖",
    "latitude": "23.9069",
    "longitude": "120.8392",
    "county": "南投縣",
    "id": "C1I22",
    "district": "國姓鄉"
  },
  {
    "altitude": "29",
    "name": "田尾",
    "latitude": "23.9034",
    "longitude": "120.5014",
    "county": "彰化縣",
    "id": "C0G82",
    "district": "田尾鄉"
  },
  {
    "altitude": "724",
    "name": "魚池",
    "latitude": "23.9028",
    "longitude": "120.9206",
    "county": "南投縣",
    "id": "C1H91",
    "district": "魚池鄉"
  },
  {
    "altitude": "45",
    "name": "社頭",
    "latitude": "23.8994",
    "longitude": "120.5781",
    "county": "彰化縣",
    "id": "C0G86",
    "district": "社頭鄉"
  },
  {
    "altitude": "27",
    "name": "吳全城",
    "latitude": "23.8889",
    "longitude": "121.5400",
    "county": "花蓮縣",
    "id": "C1T88",
    "district": "壽豐鄉"
  },
  {
    "altitude": "192",
    "name": "中寮",
    "latitude": "23.8863",
    "longitude": "120.7585",
    "county": "南投縣",
    "id": "C0H95",
    "district": "中寮鄉"
  },
  {
    "altitude": "180",
    "name": "中寮",
    "latitude": "23.8861",
    "longitude": "120.7583",
    "county": "南投縣",
    "id": "C1H95",
    "district": "中寮鄉"
  },
  {
    "altitude": "15",
    "name": "中西",
    "latitude": "23.8839",
    "longitude": "120.3439",
    "county": "彰化縣",
    "id": "C1G70",
    "district": "二林鎮"
  },
  {
    "altitude": "1015",
    "name": "日月潭",
    "latitude": "23.8830",
    "longitude": "120.8999",
    "county": "南投縣",
    "id": "46765",
    "district": "魚池鄉"
  },
  {
    "altitude": "415",
    "name": "大坑",
    "latitude": "23.8806",
    "longitude": "121.5819",
    "county": "花蓮縣",
    "id": "C0T9E",
    "district": "壽豐鄉"
  },
  {
    "altitude": "32",
    "name": "北斗",
    "latitude": "23.8792",
    "longitude": "120.5065",
    "county": "彰化縣",
    "id": "C0G84",
    "district": "北斗鎮"
  },
  {
    "altitude": "40",
    "name": "壽豐",
    "latitude": "23.8711",
    "longitude": "121.4997",
    "county": "花蓮縣",
    "id": "C1T89",
    "district": "壽豐鄉"
  },
  {
    "altitude": "27",
    "name": "埤頭",
    "latitude": "23.8678",
    "longitude": "120.4447",
    "county": "彰化縣",
    "id": "C0G83",
    "district": "埤頭鄉"
  },
  {
    "altitude": "62",
    "name": "田中",
    "latitude": "23.8587",
    "longitude": "120.5804",
    "county": "彰化縣",
    "id": "C0G85",
    "district": "田中鎮"
  },
  {
    "altitude": "653",
    "name": "東壙",
    "latitude": "23.8556",
    "longitude": "121.3969",
    "county": "花蓮縣",
    "id": "C1T91",
    "district": "萬榮鄉"
  },
  {
    "altitude": "64",
    "name": "臺西",
    "latitude": "23.8506",
    "longitude": "120.2719",
    "county": "彰化縣",
    "id": "C0G71",
    "district": "大城鄉"
  },
  {
    "altitude": "14",
    "name": "溪州",
    "latitude": "23.8500",
    "longitude": "120.4881",
    "county": "彰化縣",
    "id": "C1G67",
    "district": "溪州鄉"
  },
  {
    "altitude": "593",
    "name": "水里",
    "latitude": "23.8339",
    "longitude": "120.8458",
    "county": "南投縣",
    "id": "C1I27",
    "district": "水里鄉"
  },
  {
    "altitude": "235",
    "name": "集集",
    "latitude": "23.8283",
    "longitude": "120.7669",
    "county": "南投縣",
    "id": "C1I17",
    "district": "集集鎮"
  },
  {
    "altitude": "1693",
    "name": "文文社",
    "latitude": "23.8267",
    "longitude": "121.0128",
    "county": "南投縣",
    "id": "C1I04",
    "district": "仁愛鄉"
  },
  {
    "altitude": "511",
    "name": "月眉山",
    "latitude": "23.8258",
    "longitude": "121.5403",
    "county": "花蓮縣",
    "id": "C0T9A",
    "district": "壽豐鄉"
  },
  {
    "altitude": "439",
    "name": "埔中",
    "latitude": "23.8225",
    "longitude": "120.6347",
    "county": "南投縣",
    "id": "C1I28",
    "district": "名間鄉"
  },
  {
    "altitude": "110",
    "name": "下水埔",
    "latitude": "23.8178",
    "longitude": "120.5594",
    "county": "彰化縣",
    "id": "C1G69",
    "district": "溪州鄉"
  },
  {
    "altitude": "92",
    "name": "二水",
    "latitude": "23.8128",
    "longitude": "120.6090",
    "county": "彰化縣",
    "id": "C0G88",
    "district": "二水鄉"
  },
  {
    "altitude": "160",
    "name": "西林",
    "latitude": "23.8086",
    "longitude": "121.4097",
    "county": "花蓮縣",
    "id": "C0T90",
    "district": "萬榮鄉"
  },
  {
    "altitude": "79",
    "name": "西螺",
    "latitude": "23.8064",
    "longitude": "120.4444",
    "county": "雲林縣",
    "id": "C1K23",
    "district": "西螺鎮"
  },
  {
    "altitude": "393",
    "name": "青雲",
    "latitude": "23.8008",
    "longitude": "120.9411",
    "county": "南投縣",
    "id": "C1I15",
    "district": "信義鄉"
  },
  {
    "altitude": "283",
    "name": "水璉",
    "latitude": "23.7989",
    "longitude": "121.5342",
    "county": "花蓮縣",
    "id": "C0T9F",
    "district": "壽豐鄉"
  },
  {
    "altitude": "23",
    "name": "麥寮",
    "latitude": "23.7987",
    "longitude": "120.2177",
    "county": "雲林縣",
    "id": "A0K42",
    "district": "麥寮鄉"
  },
  {
    "altitude": "29",
    "name": "後安寮",
    "latitude": "23.7911",
    "longitude": "120.2250",
    "county": "雲林縣",
    "id": "C1K26",
    "district": "麥寮鄉"
  },
  {
    "altitude": "339",
    "name": "龍神橋",
    "latitude": "23.7817",
    "longitude": "120.8636",
    "county": "南投縣",
    "id": "C1I16",
    "district": "水里鄉"
  },
  {
    "altitude": "68",
    "name": "中興",
    "latitude": "23.7714",
    "longitude": "121.4906",
    "county": "花蓮縣",
    "id": "C1T92",
    "district": "壽豐鄉"
  },
  {
    "altitude": "161",
    "name": "竹山",
    "latitude": "23.7647",
    "longitude": "120.6778",
    "county": "南投縣",
    "id": "C0I11",
    "district": "竹山鎮"
  },
  {
    "altitude": "59",
    "name": "崙背",
    "latitude": "23.7575",
    "longitude": "120.3108",
    "county": "雲林縣",
    "id": "C1K25",
    "district": "崙背鄉"
  },
  {
    "altitude": "1001",
    "name": "西巒",
    "latitude": "23.7564",
    "longitude": "120.8756",
    "county": "南投縣",
    "id": "C1I31",
    "district": "信義鄉"
  },
  {
    "altitude": "1700",
    "name": "卡奈托灣",
    "latitude": "23.7561",
    "longitude": "121.0797",
    "county": "南投縣",
    "id": "C1I14",
    "district": "信義鄉"
  },
  {
    "altitude": "305",
    "name": "坪頂",
    "latitude": "23.7556",
    "longitude": "120.6310",
    "county": "雲林縣",
    "id": "swc14",
    "district": "林內鄉"
  },
  {
    "altitude": "2568",
    "name": "丹大",
    "latitude": "23.7556",
    "longitude": "121.1328",
    "county": "南投縣",
    "id": "C1I05",
    "district": "信義鄉"
  },
  {
    "altitude": "650",
    "name": "鳳林山",
    "latitude": "23.7478",
    "longitude": "121.4214",
    "county": "花蓮縣",
    "id": "C0T9G",
    "district": "鳳林鎮"
  },
  {
    "altitude": "130",
    "name": "鳳林",
    "latitude": "23.7453",
    "longitude": "121.4375",
    "county": "花蓮縣",
    "id": "C1T93",
    "district": "鳳林鎮"
  },
  {
    "altitude": "304",
    "name": "鳳義坑",
    "latitude": "23.7442",
    "longitude": "121.4207",
    "county": "花蓮縣",
    "id": "swc08",
    "district": "鳳林鎮"
  },
  {
    "altitude": "421",
    "name": "郡坑",
    "latitude": "23.7416",
    "longitude": "120.8629",
    "county": "南投縣",
    "id": "swc05",
    "district": "水里鄉"
  },
  {
    "altitude": "3",
    "name": "吉貝",
    "latitude": "23.7400",
    "longitude": "119.6042",
    "county": "澎湖縣",
    "id": "A0W08",
    "district": "白沙鄉"
  },
  {
    "altitude": "677",
    "name": "中心崙",
    "latitude": "23.7303",
    "longitude": "120.7042",
    "county": "南投縣",
    "id": "C1I20",
    "district": "竹山鎮"
  },
  {
    "altitude": "781",
    "name": "上安橋",
    "latitude": "23.7303",
    "longitude": "120.8658",
    "county": "南投縣",
    "id": "C1I30",
    "district": "水里鄉"
  },
  {
    "altitude": "910",
    "name": "鳳凰",
    "latitude": "23.7297",
    "longitude": "120.7792",
    "county": "南投縣",
    "id": "C0I09",
    "district": "鹿谷鄉"
  },
  {
    "altitude": "459",
    "name": "上安",
    "latitude": "23.7247",
    "longitude": "120.8666",
    "county": "南投縣",
    "id": "swc04",
    "district": "水里鄉"
  },
  {
    "altitude": "38",
    "name": "虎尾",
    "latitude": "23.7214",
    "longitude": "120.4325",
    "county": "雲林縣",
    "id": "C0K33",
    "district": "虎尾鎮"
  },
  {
    "altitude": "539",
    "name": "大觀",
    "latitude": "23.7161",
    "longitude": "121.3650",
    "county": "花蓮縣",
    "id": "C1T94",
    "district": "萬榮鄉"
  },
  {
    "altitude": "40",
    "name": "斗六",
    "latitude": "23.7072",
    "longitude": "120.5081",
    "county": "雲林縣",
    "id": "C1K31",
    "district": "斗六市"
  },
  {
    "altitude": "21",
    "name": "褒忠",
    "latitude": "23.7067",
    "longitude": "120.2997",
    "county": "雲林縣",
    "id": "C1K27",
    "district": "褒忠鄉"
  },
  {
    "altitude": "536",
    "name": "信義",
    "latitude": "23.6914",
    "longitude": "120.8428",
    "county": "南投縣",
    "id": "C1I08",
    "district": "信義鄉"
  },
  {
    "altitude": "33",
    "name": "土庫",
    "latitude": "23.6900",
    "longitude": "120.3817",
    "county": "雲林縣",
    "id": "C1K34",
    "district": "土庫鎮"
  },
  {
    "altitude": "746",
    "name": "加路蘭山",
    "latitude": "23.6842",
    "longitude": "121.5189",
    "county": "花蓮縣",
    "id": "C0T9H",
    "district": "豐濱鄉"
  },
  {
    "altitude": "1515",
    "name": "大鞍",
    "latitude": "23.6803",
    "longitude": "120.7517",
    "county": "南投縣",
    "id": "C1I12",
    "district": "竹山鎮"
  },
  {
    "altitude": "1151",
    "name": "豐丘",
    "latitude": "23.6700",
    "longitude": "120.8789",
    "county": "南投縣",
    "id": "C1I29",
    "district": "信義鄉"
  },
  {
    "altitude": "613",
    "name": "豐丘",
    "latitude": "23.6699",
    "longitude": "120.8686",
    "county": "南投縣",
    "id": "swc06",
    "district": "信義鄉"
  },
  {
    "altitude": "1050",
    "name": "太安",
    "latitude": "23.6686",
    "longitude": "121.3619",
    "county": "花蓮縣",
    "id": "C1T95",
    "district": "萬榮鄉"
  },
  {
    "altitude": "1810",
    "name": "溪頭",
    "latitude": "23.6631",
    "longitude": "120.7992",
    "county": "南投縣",
    "id": "C1I10",
    "district": "鹿谷鄉"
  },
  {
    "altitude": "140",
    "name": "光復",
    "latitude": "23.6625",
    "longitude": "121.4167",
    "county": "花蓮縣",
    "id": "C0T96",
    "district": "光復鄉"
  },
  {
    "altitude": "51",
    "name": "阿丹",
    "latitude": "23.6597",
    "longitude": "120.5036",
    "county": "雲林縣",
    "id": "C1K32",
    "district": "斗南鎮"
  },
  {
    "altitude": "311",
    "name": "桶頭",
    "latitude": "23.6442",
    "longitude": "120.6456",
    "county": "南投縣",
    "id": "C1I13",
    "district": "竹山鎮"
  },
  {
    "altitude": "196",
    "name": "大興",
    "latitude": "23.6436",
    "longitude": "121.3699",
    "county": "花蓮縣",
    "id": "swc11",
    "district": "光復鄉"
  },
  {
    "altitude": "369",
    "name": "大埔",
    "latitude": "23.6431",
    "longitude": "120.5972",
    "county": "雲林縣",
    "id": "C0K30",
    "district": "古坑鄉"
  },
  {
    "altitude": "23",
    "name": "四湖",
    "latitude": "23.6311",
    "longitude": "120.2172",
    "county": "雲林縣",
    "id": "C0K28",
    "district": "四湖鄉"
  },
  {
    "altitude": "2403",
    "name": "望鄉",
    "latitude": "23.6211",
    "longitude": "120.9028",
    "county": "南投縣",
    "id": "C1I06",
    "district": "信義鄉"
  },
  {
    "altitude": "200",
    "name": "大農",
    "latitude": "23.6169",
    "longitude": "121.4050",
    "county": "花蓮縣",
    "id": "C1T97",
    "district": "光復鄉"
  },
  {
    "altitude": "14",
    "name": "溪口",
    "latitude": "23.6058",
    "longitude": "120.3961",
    "county": "嘉義縣",
    "id": "C1M46",
    "district": "溪口鄉"
  },
  {
    "altitude": "1052",
    "name": "豐山",
    "latitude": "23.5969",
    "longitude": "120.7408",
    "county": "嘉義縣",
    "id": "C1M63",
    "district": "阿里山鄉"
  },
  {
    "altitude": "1132",
    "name": "草嶺",
    "latitude": "23.5956",
    "longitude": "120.6933",
    "county": "雲林縣",
    "id": "C0K24",
    "district": "古坑鄉"
  },
  {
    "altitude": "522",
    "name": "華山",
    "latitude": "23.5953",
    "longitude": "120.5999",
    "county": "雲林縣",
    "id": "swc10",
    "district": "古坑鄉"
  },
  {
    "altitude": "825",
    "name": "和社",
    "latitude": "23.5925",
    "longitude": "120.8808",
    "county": "南投縣",
    "id": "C1I07",
    "district": "信義鄉"
  },
  {
    "altitude": "298",
    "name": "富源",
    "latitude": "23.5898",
    "longitude": "121.3704",
    "county": "花蓮縣",
    "id": "C0Z08",
    "district": "光復鄉"
  },
  {
    "altitude": "649",
    "name": "山豬湖",
    "latitude": "23.5886",
    "longitude": "120.5931",
    "county": "雲林縣",
    "id": "C1K38",
    "district": "古坑鄉"
  },
  {
    "altitude": "828",
    "name": "豐山",
    "latitude": "23.5873",
    "longitude": "120.7399",
    "county": "嘉義縣",
    "id": "swc12",
    "district": "阿里山鄉"
  },
  {
    "altitude": "214",
    "name": "豐濱",
    "latitude": "23.5803",
    "longitude": "121.5058",
    "county": "花蓮縣",
    "id": "C0T9I",
    "district": "豐濱鄉"
  },
  {
    "altitude": "24",
    "name": "北港",
    "latitude": "23.5706",
    "longitude": "120.2867",
    "county": "雲林縣",
    "id": "C1K35",
    "district": "北港鎮"
  },
  {
    "altitude": "11",
    "name": "澎湖",
    "latitude": "23.5672",
    "longitude": "119.5552",
    "county": "澎湖縣",
    "id": "46735",
    "district": "馬公市"
  },
  {
    "altitude": "897",
    "name": "新興橋",
    "latitude": "23.5658",
    "longitude": "120.8597",
    "county": "南投縣",
    "id": "C1I34",
    "district": "信義鄉"
  },
  {
    "altitude": "167",
    "name": "中坑",
    "latitude": "23.5631",
    "longitude": "120.5175",
    "county": "嘉義縣",
    "id": "C1M45",
    "district": "大林鎮"
  },
  {
    "altitude": "887",
    "name": "東埔",
    "latitude": "23.5581",
    "longitude": "120.9167",
    "county": "南投縣",
    "id": "C1I35",
    "district": "信義鄉"
  },
  {
    "altitude": "1252",
    "name": "瑞里",
    "latitude": "23.5469",
    "longitude": "120.6669",
    "county": "嘉義縣",
    "id": "C1M62",
    "district": "梅山鄉"
  },
  {
    "altitude": "798",
    "name": "樟腦寮",
    "latitude": "23.5386",
    "longitude": "120.5994",
    "county": "嘉義縣",
    "id": "C1M48",
    "district": "竹崎鄉"
  },
  {
    "altitude": "5",
    "name": "宜梧",
    "latitude": "23.5374",
    "longitude": "120.1610",
    "county": "雲林縣",
    "id": "C0K29",
    "district": "口湖鄉"
  },
  {
    "altitude": "1595",
    "name": "神木村",
    "latitude": "23.5361",
    "longitude": "120.8347",
    "county": "南投縣",
    "id": "C0H9A",
    "district": "信義鄉"
  },
  {
    "altitude": "1179",
    "name": "神木",
    "latitude": "23.5297",
    "longitude": "120.8482",
    "county": "南投縣",
    "id": "swc03",
    "district": "信義鄉"
  },
  {
    "altitude": "2413",
    "name": "阿里山",
    "latitude": "23.5104",
    "longitude": "120.8051",
    "county": "嘉義縣",
    "id": "46753",
    "district": "阿里山鄉"
  },
  {
    "altitude": "23",
    "name": "鰲鼓",
    "latitude": "23.5072",
    "longitude": "120.1403",
    "county": "嘉義縣",
    "id": "C1M47",
    "district": "東石鄉"
  },
  {
    "altitude": "1083",
    "name": "石磐龍",
    "latitude": "23.4981",
    "longitude": "120.6550",
    "county": "嘉義縣",
    "id": "C1M61",
    "district": "竹崎鄉"
  },
  {
    "altitude": "27",
    "name": "嘉義",
    "latitude": "23.4977",
    "longitude": "120.4245",
    "county": "嘉義市",
    "id": "46748",
    "district": "西區"
  },
  {
    "altitude": "1385",
    "name": "奮起湖",
    "latitude": "23.4958",
    "longitude": "120.6911",
    "county": "嘉義縣",
    "id": "C0M53",
    "district": "竹崎鄉"
  },
  {
    "altitude": "218",
    "name": "紅葉",
    "latitude": "23.4950",
    "longitude": "121.3306",
    "county": "花蓮縣",
    "id": "C1Z03",
    "district": "萬榮鄉"
  },
  {
    "altitude": "3845",
    "name": "玉山",
    "latitude": "23.4893",
    "longitude": "120.9517",
    "county": "南投縣",
    "id": "46755",
    "district": "信義鄉"
  },
  {
    "altitude": "130",
    "name": "內埔",
    "latitude": "23.4875",
    "longitude": "120.5561",
    "county": "嘉義縣",
    "id": "C1M49",
    "district": "竹崎鄉"
  },
  {
    "altitude": "2540",
    "name": "新高口",
    "latitude": "23.4808",
    "longitude": "120.8703",
    "county": "嘉義縣",
    "id": "C1M44",
    "district": "阿里山鄉"
  },
  {
    "altitude": "41",
    "name": "魚寮",
    "latitude": "23.4803",
    "longitude": "120.3539",
    "county": "嘉義縣",
    "id": "C1M50",
    "district": "太保市"
  },
  {
    "altitude": "722",
    "name": "大湖",
    "latitude": "23.4767",
    "longitude": "120.6125",
    "county": "嘉義縣",
    "id": "C1M57",
    "district": "番路鄉"
  },
  {
    "altitude": "8",
    "name": "朴子",
    "latitude": "23.4714",
    "longitude": "120.2494",
    "county": "嘉義縣",
    "id": "C1M51",
    "district": "朴子市"
  },
  {
    "altitude": "272",
    "name": "舞鶴",
    "latitude": "23.4697",
    "longitude": "121.3658",
    "county": "花蓮縣",
    "id": "C0Z07",
    "district": "瑞穗鄉"
  },
  {
    "altitude": "3690",
    "name": "排雲",
    "latitude": "23.4651",
    "longitude": "120.9460",
    "county": "高雄市",
    "id": "C1V17",
    "district": "桃源區"
  },
  {
    "altitude": "92",
    "name": "靜浦",
    "latitude": "23.4569",
    "longitude": "121.4867",
    "county": "花蓮縣",
    "id": "C0T9M",
    "district": "豐濱鄉"
  },
  {
    "altitude": "434",
    "name": "立山",
    "latitude": "23.4450",
    "longitude": "121.3192",
    "county": "花蓮縣",
    "id": "C1Z04",
    "district": "卓溪鄉"
  },
  {
    "altitude": "1857",
    "name": "楠溪",
    "latitude": "23.4381",
    "longitude": "120.8844",
    "county": "高雄市",
    "id": "C1V46",
    "district": "桃源區"
  },
  {
    "altitude": "110",
    "name": "中埔",
    "latitude": "23.4253",
    "longitude": "120.5122",
    "county": "嘉義縣",
    "id": "C1M55",
    "district": "中埔鄉"
  },
  {
    "altitude": "43",
    "name": "南靖",
    "latitude": "23.4136",
    "longitude": "120.3772",
    "county": "嘉義縣",
    "id": "C1M56",
    "district": "水上鄉"
  },
  {
    "altitude": "986",
    "name": "頭凍",
    "latitude": "23.4081",
    "longitude": "120.5953",
    "county": "嘉義縣",
    "id": "C1M60",
    "district": "番路鄉"
  },
  {
    "altitude": "1090",
    "name": "瀨頭",
    "latitude": "23.4078",
    "longitude": "120.6458",
    "county": "嘉義縣",
    "id": "C1M39",
    "district": "番路鄉"
  },
  {
    "altitude": "128",
    "name": "高寮",
    "latitude": "23.3961",
    "longitude": "121.3486",
    "county": "花蓮縣",
    "id": "C1T99",
    "district": "玉里鎮"
  },
  {
    "altitude": "19",
    "name": "東後寮",
    "latitude": "23.3714",
    "longitude": "120.2403",
    "county": "嘉義縣",
    "id": "C1M52",
    "district": "義竹鄉"
  },
  {
    "altitude": "768",
    "name": "小公田",
    "latitude": "23.3636",
    "longitude": "120.5728",
    "county": "嘉義縣",
    "id": "C1M54",
    "district": "番路鄉"
  },
  {
    "altitude": "704",
    "name": "佳心",
    "latitude": "23.3469",
    "longitude": "121.2050",
    "county": "花蓮縣",
    "id": "C0Z05",
    "district": "卓溪鄉"
  },
  {
    "altitude": "15",
    "name": "岸內",
    "latitude": "23.3317",
    "longitude": "120.2522",
    "county": "台南市",
    "id": "C1X01",
    "district": "鹽水區"
  },
  {
    "altitude": "403",
    "name": "關子嶺",
    "latitude": "23.3289",
    "longitude": "120.5036",
    "county": "台南市",
    "id": "C0X02",
    "district": "白河區"
  },
  {
    "altitude": "33",
    "name": "白河",
    "latitude": "23.3264",
    "longitude": "120.4208",
    "county": "台南市",
    "id": "C1X03",
    "district": "白河區"
  },
  {
    "altitude": "245",
    "name": "馬頭山",
    "latitude": "23.3264",
    "longitude": "120.5736",
    "county": "嘉義縣",
    "id": "C0M41",
    "district": "大埔鄉"
  },
  {
    "altitude": "174",
    "name": "玉里",
    "latitude": "23.3217",
    "longitude": "121.3397",
    "county": "花蓮縣",
    "id": "C0Z06",
    "district": "玉里鎮"
  },
  {
    "altitude": "1246",
    "name": "大棟山",
    "latitude": "23.3133",
    "longitude": "120.5142",
    "county": "台南市",
    "id": "C1O87",
    "district": "白河區"
  },
  {
    "altitude": "198",
    "name": "卓樂",
    "latitude": "23.2989",
    "longitude": "121.2636",
    "county": "花蓮縣",
    "id": "C1Z01",
    "district": "卓溪鄉"
  },
  {
    "altitude": "19",
    "name": "東河",
    "latitude": "23.2986",
    "longitude": "120.3772",
    "county": "台南市",
    "id": "C1X05",
    "district": "東山區"
  },
  {
    "altitude": "16",
    "name": "新營",
    "latitude": "23.2942",
    "longitude": "120.3139",
    "county": "台南市",
    "id": "C0O91",
    "district": "柳營區"
  },
  {
    "altitude": "232",
    "name": "東原",
    "latitude": "23.2931",
    "longitude": "120.4553",
    "county": "台南市",
    "id": "C1X04",
    "district": "東山區"
  },
  {
    "altitude": "288",
    "name": "長濱",
    "latitude": "23.2886",
    "longitude": "121.4039",
    "county": "台東縣",
    "id": "C0S83",
    "district": "長濱鄉"
  },
  {
    "altitude": "1040",
    "name": "民生",
    "latitude": "23.2817",
    "longitude": "120.6972",
    "county": "高雄市",
    "id": "C1V16",
    "district": "那瑪夏區"
  },
  {
    "altitude": "2700",
    "name": "南天池",
    "latitude": "23.2758",
    "longitude": "120.9036",
    "county": "高雄市",
    "id": "C1V19",
    "district": "桃源區"
  },
  {
    "altitude": "870",
    "name": "梅山",
    "latitude": "23.2703",
    "longitude": "120.8154",
    "county": "高雄市",
    "id": "C1V20",
    "district": "桃源區"
  },
  {
    "altitude": "14",
    "name": "北門",
    "latitude": "23.2700",
    "longitude": "120.1164",
    "county": "台南市",
    "id": "C1X07",
    "district": "北門區"
  },
  {
    "altitude": "1163",
    "name": "表湖",
    "latitude": "23.2619",
    "longitude": "120.6561",
    "county": "高雄市",
    "id": "C0V15",
    "district": "那瑪夏區"
  },
  {
    "altitude": "43",
    "name": "東吉島",
    "latitude": "23.2590",
    "longitude": "119.6596",
    "county": "澎湖縣",
    "id": "46730",
    "district": "望安鄉"
  },
  {
    "altitude": "369",
    "name": "草嶺(嘉)",
    "latitude": "23.2536",
    "longitude": "120.5683",
    "county": "嘉義縣",
    "id": "C1M40",
    "district": "大埔鄉"
  },
  {
    "altitude": "2280",
    "name": "向陽",
    "latitude": "23.2500",
    "longitude": "120.9781",
    "county": "台東縣",
    "id": "C0S75",
    "district": "海端鄉"
  },
  {
    "altitude": "19",
    "name": "下營",
    "latitude": "23.2269",
    "longitude": "120.2481",
    "county": "台南市",
    "id": "C1X06",
    "district": "下營區"
  },
  {
    "altitude": "700",
    "name": "復興",
    "latitude": "23.2242",
    "longitude": "120.7978",
    "county": "高雄市",
    "id": "C0V21",
    "district": "桃源區"
  },
  {
    "altitude": "700",
    "name": "復興",
    "latitude": "23.2242",
    "longitude": "120.7978",
    "county": "高雄市",
    "id": "C1V21",
    "district": "桃源區"
  },
  {
    "altitude": "144",
    "name": "王爺宮",
    "latitude": "23.2225",
    "longitude": "120.3911",
    "county": "台南市",
    "id": "C1O84",
    "district": "六甲區"
  },
  {
    "altitude": "144",
    "name": "王爺宮",
    "latitude": "23.2225",
    "longitude": "120.3911",
    "county": "台南市",
    "id": "C0O84",
    "district": "六甲區"
  },
  {
    "altitude": "174",
    "name": "曾文",
    "latitude": "23.2208",
    "longitude": "120.4897",
    "county": "台南市",
    "id": "C0O81",
    "district": "楠西區"
  },
  {
    "altitude": "211",
    "name": "明里",
    "latitude": "23.2106",
    "longitude": "121.2542",
    "county": "花蓮縣",
    "id": "C0Z02",
    "district": "富里鄉"
  },
  {
    "altitude": "1580",
    "name": "摩天",
    "latitude": "23.2011",
    "longitude": "121.0192",
    "county": "台東縣",
    "id": "C1S67",
    "district": "海端鄉"
  },
  {
    "altitude": "27",
    "name": "官田",
    "latitude": "23.1950",
    "longitude": "120.3075",
    "county": "台南市",
    "id": "C0X13",
    "district": "官田區"
  },
  {
    "altitude": "28",
    "name": "麻豆",
    "latitude": "23.1851",
    "longitude": "120.2405",
    "county": "台南市",
    "id": "C0X12",
    "district": "麻豆區"
  },
  {
    "altitude": "150",
    "name": "楠西",
    "latitude": "23.1850",
    "longitude": "120.4764",
    "county": "台南市",
    "id": "C1O92",
    "district": "楠西區"
  },
  {
    "altitude": "2",
    "name": "佳里",
    "latitude": "23.1750",
    "longitude": "120.1367",
    "county": "台南市",
    "id": "C0X08",
    "district": "佳里區"
  },
  {
    "altitude": "223",
    "name": "關山",
    "latitude": "23.1750",
    "longitude": "120.5858",
    "county": "台南市",
    "id": "C1O88",
    "district": "南化區"
  },
  {
    "altitude": "1781",
    "name": "小關山",
    "latitude": "23.1558",
    "longitude": "120.8053",
    "county": "高雄市",
    "id": "C1V22",
    "district": "桃源區"
  },
  {
    "altitude": "794",
    "name": "下馬",
    "latitude": "23.1522",
    "longitude": "121.0622",
    "county": "台東縣",
    "id": "C1S66",
    "district": "海端鄉"
  },
  {
    "altitude": "222",
    "name": "南美山",
    "latitude": "23.1521",
    "longitude": "121.3743",
    "county": "台東縣",
    "id": "C1S87",
    "district": "成功鎮"
  },
  {
    "altitude": "44",
    "name": "環湖",
    "latitude": "23.1500",
    "longitude": "120.4103",
    "county": "台南市",
    "id": "C1O85",
    "district": "大內區"
  },
  {
    "altitude": "3",
    "name": "七股站",
    "latitude": "23.1478",
    "longitude": "120.0692",
    "county": "台南市",
    "id": "46778",
    "district": "七股區"
  },
  {
    "altitude": "6",
    "name": "七股",
    "latitude": "23.1436",
    "longitude": "120.1381",
    "county": "台南市",
    "id": "C1X09",
    "district": "七股區"
  },
  {
    "altitude": "760",
    "name": "高中",
    "latitude": "23.1367",
    "longitude": "120.7089",
    "county": "高雄市",
    "id": "C1V23",
    "district": "桃源區"
  },
  {
    "altitude": "42",
    "name": "玉井",
    "latitude": "23.1275",
    "longitude": "120.4525",
    "county": "台南市",
    "id": "C0O93",
    "district": "玉井區"
  },
  {
    "altitude": "17",
    "name": "西港",
    "latitude": "23.1274",
    "longitude": "120.1951",
    "county": "台南市",
    "id": "C0X14",
    "district": "西港區"
  },
  {
    "altitude": "489",
    "name": "豐南",
    "latitude": "23.1240",
    "longitude": "121.2543",
    "county": "花蓮縣",
    "id": "C1S85",
    "district": "富里鄉"
  },
  {
    "altitude": "61",
    "name": "大內",
    "latitude": "23.1219",
    "longitude": "120.3533",
    "county": "台南市",
    "id": "C0O86",
    "district": "大內區"
  },
  {
    "altitude": "61",
    "name": "大內",
    "latitude": "23.1219",
    "longitude": "120.3533",
    "county": "台南市",
    "id": "C1O86",
    "district": "大內區"
  },
  {
    "altitude": "289",
    "name": "池上",
    "latitude": "23.1214",
    "longitude": "121.2017",
    "county": "台東縣",
    "id": "C0S74",
    "district": "池上鄉"
  },
  {
    "altitude": "9",
    "name": "善化",
    "latitude": "23.1144",
    "longitude": "120.2894",
    "county": "台南市",
    "id": "C0O90",
    "district": "善化區"
  },
  {
    "altitude": "18",
    "name": "安定",
    "latitude": "23.1044",
    "longitude": "120.2200",
    "county": "台南市",
    "id": "C0X15",
    "district": "安定區"
  },
  {
    "altitude": "34",
    "name": "成功",
    "latitude": "23.0992",
    "longitude": "121.3654",
    "county": "台東縣",
    "id": "46761",
    "district": "成功鎮"
  },
  {
    "altitude": "1656",
    "name": "溪南(特)",
    "latitude": "23.0868",
    "longitude": "120.7804",
    "county": "高雄市",
    "id": "C1V58",
    "district": "桃源區"
  },
  {
    "altitude": "270",
    "name": "甲仙",
    "latitude": "23.0817",
    "longitude": "120.5825",
    "county": "高雄市",
    "id": "C0V25",
    "district": "甲仙區"
  },
  {
    "altitude": "105",
    "name": "北寮",
    "latitude": "23.0816",
    "longitude": "120.4869",
    "county": "台南市",
    "id": "C0O83",
    "district": "南化區"
  },
  {
    "altitude": "105",
    "name": "北寮",
    "latitude": "23.0816",
    "longitude": "120.4869",
    "county": "台南市",
    "id": "C1O83",
    "district": "南化區"
  },
  {
    "altitude": "4",
    "name": "和順",
    "latitude": "23.0783",
    "longitude": "120.1367",
    "county": "台南市",
    "id": "C1O95",
    "district": "安南區"
  },
  {
    "altitude": "4",
    "name": "安南",
    "latitude": "23.0783",
    "longitude": "120.1367",
    "county": "台南市",
    "id": "C0O95",
    "district": "安南區"
  },
  {
    "altitude": "1792",
    "name": "溪南",
    "latitude": "23.0778",
    "longitude": "120.7983",
    "county": "高雄市",
    "id": "C1V27",
    "district": "桃源區"
  },
  {
    "altitude": "62",
    "name": "山上",
    "latitude": "23.0774",
    "longitude": "120.3552",
    "county": "台南市",
    "id": "C0X18",
    "district": "山上區"
  },
  {
    "altitude": "1561",
    "name": "藤枝",
    "latitude": "23.0737",
    "longitude": "120.7489",
    "county": "高雄市",
    "id": "C1V60",
    "district": "六龜區"
  },
  {
    "altitude": "274",
    "name": "羌黃坑",
    "latitude": "23.0737",
    "longitude": "120.5286",
    "county": "台南市",
    "id": "88O95",
    "district": "南化區"
  },
  {
    "altitude": "1621",
    "name": "紅石",
    "latitude": "23.0714",
    "longitude": "121.1200",
    "county": "台東縣",
    "id": "C0S76",
    "district": "海端鄉"
  },
  {
    "altitude": "76",
    "name": "新市",
    "latitude": "23.0639",
    "longitude": "120.2906",
    "county": "台南市",
    "id": "C1O98",
    "district": "新市區"
  },
  {
    "altitude": "76",
    "name": "新市",
    "latitude": "23.0639",
    "longitude": "120.2906",
    "county": "台南市",
    "id": "C0O98",
    "district": "新市區"
  },
  {
    "altitude": "741",
    "name": "新發",
    "latitude": "23.0588",
    "longitude": "120.6380",
    "county": "高雄市",
    "id": "C1V59",
    "district": "六龜區"
  },
  {
    "altitude": "61",
    "name": "左鎮",
    "latitude": "23.0585",
    "longitude": "120.4004",
    "county": "台南市",
    "id": "C0X20",
    "district": "左鎮區"
  },
  {
    "altitude": "30",
    "name": "左鎮",
    "latitude": "23.0564",
    "longitude": "120.3961",
    "county": "台南市",
    "id": "C1O82",
    "district": "左鎮區"
  },
  {
    "altitude": "470",
    "name": "新發",
    "latitude": "23.0536",
    "longitude": "120.6525",
    "county": "高雄市",
    "id": "C1V24",
    "district": "六龜區"
  },
  {
    "altitude": "8",
    "name": "永康",
    "latitude": "23.0394",
    "longitude": "120.2286",
    "county": "台南市",
    "id": "46742",
    "district": "永康區"
  },
  {
    "altitude": "1166",
    "name": "新集",
    "latitude": "23.0369",
    "longitude": "120.7858",
    "county": "高雄市",
    "id": "C1V29",
    "district": "桃源區"
  },
  {
    "altitude": "403",
    "name": "集來",
    "latitude": "23.0304",
    "longitude": "120.5847",
    "county": "高雄市",
    "id": "88V56",
    "district": "杉林區"
  },
  {
    "altitude": "60",
    "name": "虎頭埤",
    "latitude": "23.0231",
    "longitude": "120.3397",
    "county": "台南市",
    "id": "C0O97",
    "district": "新化區"
  },
  {
    "altitude": "60",
    "name": "虎頭埤",
    "latitude": "23.0231",
    "longitude": "120.3397",
    "county": "台南市",
    "id": "C1O97",
    "district": "新化區"
  },
  {
    "altitude": "10",
    "name": "臺南市北",
    "latitude": "23.0122",
    "longitude": "120.1863",
    "county": "台南市",
    "id": "C0X10",
    "district": "北區"
  },
  {
    "altitude": "1637",
    "name": "御油山",
    "latitude": "23.0039",
    "longitude": "120.7069",
    "county": "高雄市",
    "id": "C1V30",
    "district": "桃源區"
  },
  {
    "altitude": "41",
    "name": "南區",
    "latitude": "22.9952",
    "longitude": "120.1970",
    "county": "台南市",
    "id": "46741",
    "district": "中西區"
  },
  {
    "altitude": "10",
    "name": "安平",
    "latitude": "22.9950",
    "longitude": "120.1441",
    "county": "台南市",
    "id": "C0X19",
    "district": "安平區"
  },
  {
    "altitude": "23",
    "name": "媽祖廟",
    "latitude": "22.9933",
    "longitude": "120.2853",
    "county": "台南市",
    "id": "C1O99",
    "district": "歸仁區"
  },
  {
    "altitude": "23",
    "name": "媽廟",
    "latitude": "22.9933",
    "longitude": "120.2853",
    "county": "台南市",
    "id": "C0O99",
    "district": "歸仁區"
  },
  {
    "altitude": "94",
    "name": "內門",
    "latitude": "22.9769",
    "longitude": "120.4583",
    "county": "高雄市",
    "id": "C0V36",
    "district": "內門區"
  },
  {
    "altitude": "94",
    "name": "木柵",
    "latitude": "22.9769",
    "longitude": "120.4583",
    "county": "高雄市",
    "id": "C1V36",
    "district": "內門區"
  },
  {
    "altitude": "65",
    "name": "東河",
    "latitude": "22.9736",
    "longitude": "121.2983",
    "county": "台東縣",
    "id": "C0S81",
    "district": "東河鄉"
  },
  {
    "altitude": "112",
    "name": "月眉",
    "latitude": "22.9731",
    "longitude": "120.5317",
    "county": "高雄市",
    "id": "C1V26",
    "district": "杉林區"
  },
  {
    "altitude": "112",
    "name": "月眉",
    "latitude": "22.9731",
    "longitude": "120.5317",
    "county": "高雄市",
    "id": "C0V26",
    "district": "杉林區"
  },
  {
    "altitude": "26",
    "name": "仁德",
    "latitude": "22.9701",
    "longitude": "120.2498",
    "county": "台南市",
    "id": "C0X16",
    "district": "仁德區"
  },
  {
    "altitude": "50",
    "name": "關廟",
    "latitude": "22.9649",
    "longitude": "120.3197",
    "county": "台南市",
    "id": "C0X17",
    "district": "關廟區"
  },
  {
    "altitude": "20",
    "name": "臺南市南",
    "latitude": "22.9630",
    "longitude": "120.1804",
    "county": "台南市",
    "id": "C0X11",
    "district": "南區"
  },
  {
    "altitude": "80",
    "name": "崎頂",
    "latitude": "22.9613",
    "longitude": "120.3612",
    "county": "台南市",
    "id": "C0O96",
    "district": "龍崎區"
  },
  {
    "altitude": "80",
    "name": "崎頂",
    "latitude": "22.9613",
    "longitude": "120.3612",
    "county": "台南市",
    "id": "C1O96",
    "district": "龍崎區"
  },
  {
    "altitude": "25",
    "name": "沙崙",
    "latitude": "22.9375",
    "longitude": "120.3011",
    "county": "台南市",
    "id": "C1N00",
    "district": "歸仁區"
  },
  {
    "altitude": "1659",
    "name": "紅葉山",
    "latitude": "22.9217",
    "longitude": "121.0311",
    "county": "台東縣",
    "id": "C0S68",
    "district": "延平鄉"
  },
  {
    "altitude": "313",
    "name": "鹿野",
    "latitude": "22.9186",
    "longitude": "121.1147",
    "county": "台東縣",
    "id": "C0S71",
    "district": "鹿野鄉"
  },
  {
    "altitude": "15",
    "name": "湖內",
    "latitude": "22.9100",
    "longitude": "120.2028",
    "county": "高雄市",
    "id": "C0V64",
    "district": "湖內區"
  },
  {
    "altitude": "19",
    "name": "茄萣",
    "latitude": "22.9084",
    "longitude": "120.1746",
    "county": "高雄市",
    "id": "C0V63",
    "district": "茄萣區"
  },
  {
    "altitude": "46",
    "name": "美濃",
    "latitude": "22.9006",
    "longitude": "120.5111",
    "county": "高雄市",
    "id": "C0V31",
    "district": "美濃區"
  },
  {
    "altitude": "30",
    "name": "古亭坑",
    "latitude": "22.8950",
    "longitude": "120.3939",
    "county": "高雄市",
    "id": "C0V37",
    "district": "田寮區"
  },
  {
    "altitude": "60",
    "name": "旗山",
    "latitude": "22.8904",
    "longitude": "120.4755",
    "county": "高雄市",
    "id": "C0V74",
    "district": "旗山區"
  },
  {
    "altitude": "190",
    "name": "大津",
    "latitude": "22.8900",
    "longitude": "120.6381",
    "county": "高雄市",
    "id": "C1V34",
    "district": "六龜區"
  },
  {
    "altitude": "34",
    "name": "阿蓮",
    "latitude": "22.8849",
    "longitude": "120.3195",
    "county": "高雄市",
    "id": "C0V53",
    "district": "阿蓮區"
  },
  {
    "altitude": "34",
    "name": "阿蓮",
    "latitude": "22.8849",
    "longitude": "120.3195",
    "county": "高雄市",
    "id": "C1V53",
    "district": "阿蓮區"
  },
  {
    "altitude": "16",
    "name": "路竹",
    "latitude": "22.8808",
    "longitude": "120.2842",
    "county": "高雄市",
    "id": "C1V38",
    "district": "路竹區"
  },
  {
    "altitude": "23",
    "name": "都蘭",
    "latitude": "22.8797",
    "longitude": "121.2208",
    "county": "台東縣",
    "id": "C1S63",
    "district": "東河鄉"
  },
  {
    "altitude": "63",
    "name": "旗山",
    "latitude": "22.8797",
    "longitude": "120.4861",
    "county": "高雄市",
    "id": "C1V33",
    "district": "旗山區"
  },
  {
    "altitude": "60",
    "name": "路竹",
    "latitude": "22.8566",
    "longitude": "120.2514",
    "county": "高雄市",
    "id": "C0V75",
    "district": "路竹區"
  },
  {
    "altitude": "82",
    "name": "吉東",
    "latitude": "22.8560",
    "longitude": "120.5373",
    "county": "高雄市",
    "id": "C1V57",
    "district": "美濃區"
  },
  {
    "altitude": "95",
    "name": "吉東",
    "latitude": "22.8433",
    "longitude": "120.5492",
    "county": "高雄市",
    "id": "C1V32",
    "district": "美濃區"
  },
  {
    "altitude": "35",
    "name": "三爺",
    "latitude": "22.8383",
    "longitude": "120.2719",
    "county": "高雄市",
    "id": "C1P9A",
    "district": "路竹區"
  },
  {
    "altitude": "1018",
    "name": "尾寮山",
    "latitude": "22.8350",
    "longitude": "120.6758",
    "county": "屏東縣",
    "id": "C0R10",
    "district": "三地門鄉"
  },
  {
    "altitude": "103",
    "name": "高樹",
    "latitude": "22.8282",
    "longitude": "120.5927",
    "county": "屏東縣",
    "id": "C0R47",
    "district": "高樹鄉"
  },
  {
    "altitude": "18",
    "name": "永安",
    "latitude": "22.8250",
    "longitude": "120.2288",
    "county": "高雄市",
    "id": "C0V62",
    "district": "永安區"
  },
  {
    "altitude": "60",
    "name": "尖山",
    "latitude": "22.8150",
    "longitude": "120.3597",
    "county": "高雄市",
    "id": "C1V39",
    "district": "燕巢區"
  },
  {
    "altitude": "51",
    "name": "阿公店",
    "latitude": "22.8147",
    "longitude": "120.3353",
    "county": "高雄市",
    "id": "C0V40",
    "district": "燕巢區"
  },
  {
    "altitude": "51",
    "name": "竹子腳",
    "latitude": "22.8147",
    "longitude": "120.3353",
    "county": "高雄市",
    "id": "C1V40",
    "district": "燕巢區"
  },
  {
    "altitude": "516",
    "name": "利嘉",
    "latitude": "22.8111",
    "longitude": "121.0424",
    "county": "台東縣",
    "id": "C1S86",
    "district": "卑南鄉"
  },
  {
    "altitude": "42",
    "name": "里港",
    "latitude": "22.8014",
    "longitude": "120.4886",
    "county": "屏東縣",
    "id": "C0R09",
    "district": "里港鄉"
  },
  {
    "altitude": "42",
    "name": "里港",
    "latitude": "22.8014",
    "longitude": "120.4886",
    "county": "屏東縣",
    "id": "C1R09",
    "district": "里港鄉"
  },
  {
    "altitude": "25",
    "name": "岡山",
    "latitude": "22.7993",
    "longitude": "120.2872",
    "county": "高雄市",
    "id": "C0V66",
    "district": "岡山區"
  },
  {
    "altitude": "15",
    "name": "彌陀",
    "latitude": "22.7857",
    "longitude": "120.2383",
    "county": "高雄市",
    "id": "C0V65",
    "district": "彌陀區"
  },
  {
    "altitude": "140",
    "name": "古夏",
    "latitude": "22.7714",
    "longitude": "120.6372",
    "county": "屏東縣",
    "id": "C1R11",
    "district": "三地門鄉"
  },
  {
    "altitude": "820",
    "name": "上德文",
    "latitude": "22.7650",
    "longitude": "120.6964",
    "county": "屏東縣",
    "id": "C1R12",
    "district": "三地門鄉"
  },
  {
    "altitude": "22",
    "name": "梓官",
    "latitude": "22.7624",
    "longitude": "120.2593",
    "county": "高雄市",
    "id": "C0V61",
    "district": "梓官區"
  },
  {
    "altitude": "27",
    "name": "橋頭",
    "latitude": "22.7595",
    "longitude": "120.2976",
    "county": "高雄市",
    "id": "C0V76",
    "district": "橋頭區"
  },
  {
    "altitude": "31",
    "name": "岡山",
    "latitude": "22.7569",
    "longitude": "120.2897",
    "county": "高雄市",
    "id": "C1V41",
    "district": "橋頭區"
  },
  {
    "altitude": "9",
    "name": "臺東",
    "latitude": "22.7540",
    "longitude": "121.1465",
    "county": "台東縣",
    "id": "46766",
    "district": "臺東市"
  },
  {
    "altitude": "56",
    "name": "新圍",
    "latitude": "22.7539",
    "longitude": "120.5300",
    "county": "屏東縣",
    "id": "C0R16",
    "district": "鹽埔鄉"
  },
  {
    "altitude": "56",
    "name": "新圍",
    "latitude": "22.7539",
    "longitude": "120.5300",
    "county": "屏東縣",
    "id": "C1R16",
    "district": "鹽埔鄉"
  },
  {
    "altitude": "55",
    "name": "鳳雄",
    "latitude": "22.7525",
    "longitude": "120.3442",
    "county": "高雄市",
    "id": "C1V42",
    "district": "大社區"
  },
  {
    "altitude": "1040",
    "name": "阿禮",
    "latitude": "22.7444",
    "longitude": "120.7356",
    "county": "屏東縣",
    "id": "C0R13",
    "district": "霧台鄉"
  },
  {
    "altitude": "1040",
    "name": "阿禮",
    "latitude": "22.7444",
    "longitude": "120.7356",
    "county": "屏東縣",
    "id": "C1R13",
    "district": "霧台鄉"
  },
  {
    "altitude": "49",
    "name": "九如",
    "latitude": "22.7423",
    "longitude": "120.4825",
    "county": "屏東縣",
    "id": "C0R49",
    "district": "九如鄉"
  },
  {
    "altitude": "36",
    "name": "溪埔",
    "latitude": "22.7403",
    "longitude": "120.4386",
    "county": "高雄市",
    "id": "C0V35",
    "district": "大樹區"
  },
  {
    "altitude": "36",
    "name": "溪埔",
    "latitude": "22.7403",
    "longitude": "120.4386",
    "county": "高雄市",
    "id": "C1V35",
    "district": "大樹區"
  },
  {
    "altitude": "37",
    "name": "大社",
    "latitude": "22.7321",
    "longitude": "120.3386",
    "county": "高雄市",
    "id": "C0V77",
    "district": "大社區"
  },
  {
    "altitude": "55",
    "name": "射馬干",
    "latitude": "22.7269",
    "longitude": "121.0298",
    "county": "台東縣",
    "id": "swc09",
    "district": "卑南鄉"
  },
  {
    "altitude": "42",
    "name": "楠梓",
    "latitude": "22.7215",
    "longitude": "120.2779",
    "county": "高雄市",
    "id": "C0V67",
    "district": "楠梓區"
  },
  {
    "altitude": "99",
    "name": "三地門",
    "latitude": "22.7119",
    "longitude": "120.6317",
    "county": "屏東縣",
    "id": "C0R15",
    "district": "內埔鄉"
  },
  {
    "altitude": "38",
    "name": "仁武",
    "latitude": "22.7028",
    "longitude": "120.3397",
    "county": "高雄市",
    "id": "C0V68",
    "district": "仁武區"
  },
  {
    "altitude": "57",
    "name": "長治",
    "latitude": "22.6948",
    "longitude": "120.5346",
    "county": "屏東縣",
    "id": "C0R48",
    "district": "長治鄉"
  },
  {
    "altitude": "507",
    "name": "知本",
    "latitude": "22.6867",
    "longitude": "120.9975",
    "county": "台東縣",
    "id": "C0S70",
    "district": "卑南鄉"
  },
  {
    "altitude": "740",
    "name": "瑪家",
    "latitude": "22.6847",
    "longitude": "120.6789",
    "county": "屏東縣",
    "id": "C1R14",
    "district": "瑪家鄉"
  },
  {
    "altitude": "740",
    "name": "瑪家",
    "latitude": "22.6847",
    "longitude": "120.6789",
    "county": "屏東縣",
    "id": "C0R14",
    "district": "瑪家鄉"
  },
  {
    "altitude": "24",
    "name": "左營",
    "latitude": "22.6797",
    "longitude": "120.2857",
    "county": "高雄市",
    "id": "C0V43",
    "district": "左營區"
  },
  {
    "altitude": "13",
    "name": "左營",
    "latitude": "22.6789",
    "longitude": "120.2872",
    "county": "高雄市",
    "id": "C1V43",
    "district": "左營區"
  },
  {
    "altitude": "61",
    "name": "龍泉",
    "latitude": "22.6689",
    "longitude": "120.5942",
    "county": "屏東縣",
    "id": "C1R20",
    "district": "內埔鄉"
  },
  {
    "altitude": "26",
    "name": "屏東",
    "latitude": "22.6619",
    "longitude": "120.4836",
    "county": "屏東縣",
    "id": "C0R17",
    "district": "屏東市"
  },
  {
    "altitude": "26",
    "name": "屏東",
    "latitude": "22.6619",
    "longitude": "120.4836",
    "county": "屏東縣",
    "id": "C1R17",
    "district": "屏東市"
  },
  {
    "altitude": "80",
    "name": "華源",
    "latitude": "22.6597",
    "longitude": "121.0156",
    "county": "台東縣",
    "id": "C1S80",
    "district": "太麻里鄉"
  },
  {
    "altitude": "54",
    "name": "麟洛",
    "latitude": "22.6592",
    "longitude": "120.5436",
    "county": "屏東縣",
    "id": "C1R21",
    "district": "麟洛鄉"
  },
  {
    "altitude": "304",
    "name": "綠島",
    "latitude": "22.6539",
    "longitude": "121.4753",
    "county": "台東縣",
    "id": "C0S73",
    "district": "綠島鄉"
  },
  {
    "altitude": "37",
    "name": "麟洛",
    "latitude": "22.6525",
    "longitude": "120.5191",
    "county": "屏東縣",
    "id": "C0R57",
    "district": "麟洛鄉"
  },
  {
    "altitude": "27",
    "name": "鳳山",
    "latitude": "22.6486",
    "longitude": "120.3481",
    "county": "高雄市",
    "id": "C0V44",
    "district": "鳳山區"
  },
  {
    "altitude": "27",
    "name": "鳳山",
    "latitude": "22.6486",
    "longitude": "120.3481",
    "county": "高雄市",
    "id": "C1V44",
    "district": "鳳山區"
  },
  {
    "altitude": "24",
    "name": "三民",
    "latitude": "22.6469",
    "longitude": "120.3033",
    "county": "高雄市",
    "id": "C0V70",
    "district": "三民區"
  },
  {
    "altitude": "20",
    "name": "新興",
    "latitude": "22.6291",
    "longitude": "120.2906",
    "county": "高雄市",
    "id": "C0V49",
    "district": "新興區"
  },
  {
    "altitude": "30",
    "name": "鼓山",
    "latitude": "22.6251",
    "longitude": "120.2675",
    "county": "高雄市",
    "id": "C0V69",
    "district": "鼓山區"
  },
  {
    "altitude": "34",
    "name": "苓雅",
    "latitude": "22.6245",
    "longitude": "120.3226",
    "county": "高雄市",
    "id": "C0V71",
    "district": "苓雅區"
  },
  {
    "altitude": "24",
    "name": "大寮",
    "latitude": "22.6119",
    "longitude": "120.4239",
    "county": "高雄市",
    "id": "C1V18",
    "district": "大寮區"
  },
  {
    "altitude": "522",
    "name": "太麻里",
    "latitude": "22.6103",
    "longitude": "120.9858",
    "county": "台東縣",
    "id": "C0S69",
    "district": "太麻里鄉"
  },
  {
    "altitude": "33",
    "name": "大寮",
    "latitude": "22.6074",
    "longitude": "120.3877",
    "county": "高雄市",
    "id": "C0V73",
    "district": "大寮區"
  },
  {
    "altitude": "177",
    "name": "金峰",
    "latitude": "22.5990",
    "longitude": "120.9308",
    "county": "台東縣",
    "id": "C1S82",
    "district": "金峰鄉"
  },
  {
    "altitude": "34",
    "name": "赤山",
    "latitude": "22.5941",
    "longitude": "120.6063",
    "county": "屏東縣",
    "id": "C0R19",
    "district": "萬巒鄉"
  },
  {
    "altitude": "48",
    "name": "赤山",
    "latitude": "22.5928",
    "longitude": "120.6083",
    "county": "屏東縣",
    "id": "C1R19",
    "district": "萬巒鄉"
  },
  {
    "altitude": "6",
    "name": "旗津",
    "latitude": "22.5904",
    "longitude": "120.2779",
    "county": "高雄市",
    "id": "C0V50",
    "district": "旗津區"
  },
  {
    "altitude": "31",
    "name": "萬丹",
    "latitude": "22.5896",
    "longitude": "120.4824",
    "county": "屏東縣",
    "id": "C0R51",
    "district": "萬丹鄉"
  },
  {
    "altitude": "32",
    "name": "竹田",
    "latitude": "22.5865",
    "longitude": "120.5359",
    "county": "屏東縣",
    "id": "C0R50",
    "district": "竹田鄉"
  },
  {
    "altitude": "2",
    "name": "高雄",
    "latitude": "22.5679",
    "longitude": "120.3080",
    "county": "高雄市",
    "id": "46744",
    "district": "前鎮區"
  },
  {
    "altitude": "51",
    "name": "鳳森",
    "latitude": "22.5469",
    "longitude": "120.3845",
    "county": "高雄市",
    "id": "C1V45",
    "district": "小港區"
  },
  {
    "altitude": "51",
    "name": "鳳森",
    "latitude": "22.5469",
    "longitude": "120.3845",
    "county": "高雄市",
    "id": "C0V45",
    "district": "小港區"
  },
  {
    "altitude": "22",
    "name": "新園",
    "latitude": "22.5452",
    "longitude": "120.4535",
    "county": "屏東縣",
    "id": "C0R56",
    "district": "新園鄉"
  },
  {
    "altitude": "236",
    "name": "金崙",
    "latitude": "22.5400",
    "longitude": "120.9589",
    "county": "台東縣",
    "id": "C0S79",
    "district": "太麻里鄉"
  },
  {
    "altitude": "22",
    "name": "潮州",
    "latitude": "22.5361",
    "longitude": "120.5319",
    "county": "屏東縣",
    "id": "C0R22",
    "district": "潮州鎮"
  },
  {
    "altitude": "74",
    "name": "來義",
    "latitude": "22.5289",
    "longitude": "120.6175",
    "county": "屏東縣",
    "id": "C1R24",
    "district": "萬巒鄉"
  },
  {
    "altitude": "74",
    "name": "來義",
    "latitude": "22.5289",
    "longitude": "120.6175",
    "county": "屏東縣",
    "id": "C0R24",
    "district": "萬巒鄉"
  },
  {
    "altitude": "189",
    "name": "來義",
    "latitude": "22.5276",
    "longitude": "120.6680",
    "county": "屏東縣",
    "id": "88R46",
    "district": "來義鄉"
  },
  {
    "altitude": "18",
    "name": "崁頂",
    "latitude": "22.5166",
    "longitude": "120.4990",
    "county": "屏東縣",
    "id": "C0R52",
    "district": "崁頂鄉"
  },
  {
    "altitude": "15",
    "name": "林園",
    "latitude": "22.5096",
    "longitude": "120.3866",
    "county": "高雄市",
    "id": "C0V72",
    "district": "林園區"
  },
  {
    "altitude": "20",
    "name": "南州",
    "latitude": "22.4944",
    "longitude": "120.5086",
    "county": "屏東縣",
    "id": "C1R23",
    "district": "南州鄉"
  },
  {
    "altitude": "10",
    "name": "南州",
    "latitude": "22.4877",
    "longitude": "120.4947",
    "county": "屏東縣",
    "id": "C0R58",
    "district": "南州鄉"
  },
  {
    "altitude": "375",
    "name": "大溪山",
    "latitude": "22.4800",
    "longitude": "120.9353",
    "county": "台東縣",
    "id": "C0S77",
    "district": "太麻里鄉"
  },
  {
    "altitude": "38",
    "name": "新埤",
    "latitude": "22.4698",
    "longitude": "120.5748",
    "county": "屏東縣",
    "id": "C0R55",
    "district": "新埤鄉"
  },
  {
    "altitude": "31",
    "name": "東港",
    "latitude": "22.4667",
    "longitude": "120.4333",
    "county": "屏東縣",
    "id": "C0R43",
    "district": "東港鎮"
  },
  {
    "altitude": "122",
    "name": "土阪",
    "latitude": "22.4547",
    "longitude": "120.8794",
    "county": "台東縣",
    "id": "C1S62",
    "district": "達仁鄉"
  },
  {
    "altitude": "16",
    "name": "林邊",
    "latitude": "22.4327",
    "longitude": "120.5021",
    "county": "屏東縣",
    "id": "C0R53",
    "district": "林邊鄉"
  },
  {
    "altitude": "91",
    "name": "力里",
    "latitude": "22.4297",
    "longitude": "120.6200",
    "county": "屏東縣",
    "id": "C1R25",
    "district": "春日鄉"
  },
  {
    "altitude": "17",
    "name": "佳冬",
    "latitude": "22.4212",
    "longitude": "120.5442",
    "county": "屏東縣",
    "id": "C0R54",
    "district": "佳冬鄉"
  },
  {
    "altitude": "1654",
    "name": "大漢山",
    "latitude": "22.4059",
    "longitude": "120.7451",
    "county": "屏東縣",
    "id": "C1R44",
    "district": "春日鄉"
  },
  {
    "altitude": "139",
    "name": "大鳥",
    "latitude": "22.3915",
    "longitude": "120.9022",
    "county": "台東縣",
    "id": "88S67",
    "district": "大武鄉"
  },
  {
    "altitude": "86",
    "name": "春日",
    "latitude": "22.3722",
    "longitude": "120.6203",
    "county": "屏東縣",
    "id": "C0R26",
    "district": "春日鄉"
  },
  {
    "altitude": "86",
    "name": "春日",
    "latitude": "22.3722",
    "longitude": "120.6203",
    "county": "屏東縣",
    "id": "C1R26",
    "district": "春日鄉"
  },
  {
    "altitude": "69",
    "name": "枋寮",
    "latitude": "22.3681",
    "longitude": "120.5900",
    "county": "屏東縣",
    "id": "C0R38",
    "district": "枋寮鄉"
  },
  {
    "altitude": "8",
    "name": "大武",
    "latitude": "22.3576",
    "longitude": "120.8957",
    "county": "台東縣",
    "id": "46754",
    "district": "大武鄉"
  },
  {
    "altitude": "51",
    "name": "琉球嶼",
    "latitude": "22.3339",
    "longitude": "120.3542",
    "county": "屏東縣",
    "id": "C0R27",
    "district": "琉球鄉"
  },
  {
    "altitude": "22",
    "name": "南田",
    "latitude": "22.2919",
    "longitude": "120.8819",
    "county": "台東縣",
    "id": "C0S84",
    "district": "達仁鄉"
  },
  {
    "altitude": "36",
    "name": "枋山",
    "latitude": "22.2486",
    "longitude": "120.6531",
    "county": "屏東縣",
    "id": "C1R33",
    "district": "枋山鄉"
  },
  {
    "altitude": "489",
    "name": "壽卡",
    "latitude": "22.2417",
    "longitude": "120.8511",
    "county": "屏東縣",
    "id": "C1R31",
    "district": "牡丹鄉"
  },
  {
    "altitude": "20",
    "name": "旭海",
    "latitude": "22.1978",
    "longitude": "120.8786",
    "county": "屏東縣",
    "id": "C1R30",
    "district": "牡丹鄉"
  },
  {
    "altitude": "285",
    "name": "牡丹",
    "latitude": "22.1942",
    "longitude": "120.8297",
    "county": "屏東縣",
    "id": "C0R34",
    "district": "牡丹鄉"
  },
  {
    "altitude": "63",
    "name": "楓港",
    "latitude": "22.1917",
    "longitude": "120.6847",
    "county": "屏東縣",
    "id": "C0R40",
    "district": "枋山鄉"
  },
  {
    "altitude": "504",
    "name": "牡丹池山",
    "latitude": "22.1696",
    "longitude": "120.8325",
    "county": "屏東縣",
    "id": "C0R42",
    "district": "牡丹鄉"
  },
  {
    "altitude": "260",
    "name": "石門山",
    "latitude": "22.1167",
    "longitude": "120.7417",
    "county": "屏東縣",
    "id": "C1R29",
    "district": "牡丹鄉"
  },
  {
    "altitude": "54",
    "name": "車城",
    "latitude": "22.0758",
    "longitude": "120.7081",
    "county": "屏東縣",
    "id": "C1R32",
    "district": "車城鄉"
  },
  {
    "altitude": "250",
    "name": "檳榔",
    "latitude": "22.0706",
    "longitude": "120.8283",
    "county": "屏東縣",
    "id": "C0R28",
    "district": "滿州鄉"
  },
  {
    "altitude": "324",
    "name": "蘭嶼",
    "latitude": "22.0387",
    "longitude": "121.5506",
    "county": "台東縣",
    "id": "46762",
    "district": "蘭嶼鄉"
  },
  {
    "altitude": "22",
    "name": "恆春",
    "latitude": "22.0054",
    "longitude": "120.7381",
    "county": "屏東縣",
    "id": "46759",
    "district": "恆春鎮"
  },
  {
    "altitude": "94",
    "name": "佳樂水",
    "latitude": "21.9942",
    "longitude": "120.8367",
    "county": "屏東縣",
    "id": "C0R37",
    "district": "滿州鄉"
  },
  {
    "altitude": "5",
    "name": "墾丁",
    "latitude": "21.9478",
    "longitude": "120.7942",
    "county": "屏東縣",
    "id": "C0R36",
    "district": "恆春鎮"
  },
  {
    "altitude": "49",
    "name": "貓鼻頭",
    "latitude": "21.9244",
    "longitude": "120.7281",
    "county": "屏東縣",
    "id": "C0R35",
    "district": "恆春鎮"
  },
  {
    "altitude": "29",
    "name": "墾雷",
    "latitude": "21.9029",
    "longitude": "120.8470",
    "county": "屏東縣",
    "id": "46779",
    "district": "恆春鎮"
  },
  {
    "altitude": "4",
    "name": "東沙",
    "latitude": "20.0700",
    "longitude": "116.7167",
    "county": "高雄市",
    "id": "46810",
    "district": "東沙區"
  }
]